DISTNAME,CAMPNAME,CNTYNAME,Longitude,Latitude,STREET,CITY,ZIP,CAMPUS,year,COUNT_ALL,COUNT_BLACK,COUNT_HIS,COUNT_WHITE,COUNT_AI,COUNT_API,COUNT_ASIAN,COUNT_PI,COUNT_TWO,COUNT_ECON,COUNT_ELL,PER_BLACK,PER_HIS,PER_WHITE,PER_AI,PER_API,PER_ASIAN,PER_PI,PER_TWO,PER_ECON,PER_ELL
BASTROP ISD,BASTROP H S,BASTROP,-95.258125,29.438503000000136,1450 HTS RD,ALVIN,77511,11901001,01-01-07,2271,218,788,1237,14,14,,,,989,96,9.6,34.7,54.5,0.6,0.6,,,,43.5,4.2
BASTROP ISD,GATEWAY SCH,BASTROP,-101.948941,32.527408,2911 COUNTY RD H,LAMESA,79331,11901033,01-01-07,54,17,23,14,0,0,,,,40,4,31.5,42.6,25.9,0,0,,,,74.1,7.4
BASTROP ISD,BASTROP MIDDLE,BASTROP,-98.651112999999896,29.229792,7650 S LOOP 1604 W,SOMERSET,78069,11901041,01-01-07,601,93,142,354,4,8,,,,291,15,15.5,23.6,58.9,0.7,1.3,,,,48.4,2.5
BASTROP ISD,EMILE ELEMENTARY,BASTROP,-98.573868,29.558065,11431 VANCE JACKSON RD,SAN ANTONIO,78230,11901101,01-01-07,501,85,102,305,5,4,,,,211,12,17,20.4,60.9,1,0.8,,,,42.1,2.4
BASTROP ISD,MINA ELEMENTARY,BASTROP,-95.718084,29.940142,19545 CYPRESS N HOUSTON,CYPRESS,77433,11901102,01-01-07,580,102,177,287,8,6,,,,336,69,17.6,30.5,49.5,1.4,1,,,,57.9,11.9
BASTROP ISD,CEDAR CREEK ELEMENTARY,BASTROP,-95.201101,29.930726,14600 WOODSON PARK DR,HOUSTON,77044,11901103,01-01-07,585,38,350,191,0,6,,,,378,179,6.5,59.8,32.6,0,1,,,,64.6,30.6
BASTROP ISD,BASTROP INTERMEDIATE,BASTROP,-101.580325,35.645076,538 EAGLE BLVD,FRITCH,79036,11901104,01-01-07,622,83,173,360,2,4,,,,305,21,13.3,27.8,57.9,0.3,0.6,,,,49,3.4
BASTROP ISD,CEDAR CREEK MIDDLE SCHOOL,BASTROP,-97.185926,33.106541,191 U S HWY 377,ARGYLE,76226,11901106,01-01-07,577,37,303,231,2,4,,,,326,57,6.4,52.5,40,0.3,0.7,,,,56.5,9.9
BASTROP ISD,RED ROCK ELEMENTARY,BASTROP,-97.191169,32.860944,9100 MID CITIES BLVD,NORTH RICHLAND HILLS,76180,11901107,01-01-07,532,11,263,254,2,2,,,,342,139,2.1,49.4,47.7,0.4,0.4,,,,64.3,26.1
BASTROP ISD,CEDAR CREEK INTERMEDIATE SCHOOL,BASTROP,-95.715095,29.852616,19636 PLANTATION MYRTLES DR,KATY,77449,11901108,01-01-07,603,34,320,242,1,6,,,,357,76,5.6,53.1,40.1,0.2,1,,,,59.2,12.6
BASTROP ISD,BLUEBONNET ELEMENTARY SCHOOL,BASTROP,-97.753296,33.222445,1400 HWY 380,BRIDGEPORT,76426,11901109,01-01-07,567,39,301,221,2,4,,,,357,154,6.9,53.1,39,0.4,0.7,,,,63,27.2
BASTROP ISD,LOST PINES ELEMENTARY SCHOOL,BASTROP,-97.483955,25.905956,1811 INTERNATIONAL BLVD,BROWNSVILLE,78521,11901110,01-01-07,662,26,285,351,0,0,,,,462,153,3.9,43.1,53,0,0,,,,69.8,23.1
ELGIN ISD,ELGIN H S,BASTROP,-96.102646,33.769118,9363 E FM 273,IVANHOE,75447,11902001,01-01-07,988,163,404,411,2,8,,,,504,45,16.5,40.9,41.6,0.2,0.8,,,,51,4.6
ELGIN ISD,BASTROP COUNTY JUVENILE BOOT CAMP,BASTROP,-97.103397,33.132732,7501 TEASLEY LN,DENTON,76210,11902003,01-01-07,2,0,1,1,0,0,,,,1,0,0,50,50,0,0,,,,50,0
ELGIN ISD,PHOENIX HIGH SCHOOL,BASTROP,-106.341463,31.767644,10530 JANWAY DR,EL PASO,79925,11902004,01-01-07,25,1,10,14,0,0,,,,12,0,4,40,56,0,0,,,,48,0
ELGIN ISD,ELGIN MIDDLE SCHOOL,BASTROP,-99.457382720180362,27.429938849765151,5910 SAINT LUKE BLVD,LAREDO,78046,11902041,01-01-07,752,105,362,280,2,3,,,,440,78,14,48.1,37.2,0.3,0.4,,,,58.5,10.4
ELGIN ISD,BOOKER T WASHINGTON ELEMENTARY,BASTROP,-95.416748,29.571195,2225 KINGSLEY,PEARLAND,77584,11902101,01-01-07,579,70,328,174,1,6,,,,407,209,12.1,56.6,30.1,0.2,1,,,,70.3,36.1
ELGIN ISD,ELGIN ELEMENTARY,BASTROP,-96.57833,32.999813,103 HENSLEY,WYLIE,75098,11902102,01-01-07,599,79,306,212,1,1,,,,401,135,13.2,51.1,35.4,0.2,0.2,,,,66.9,22.5
ELGIN ISD,NEIDIG EL,BASTROP,-95.29692,29.772285,7211 MARKET ST,HOUSTON,77020,11902103,01-01-07,611,119,312,172,2,6,,,,393,122,19.5,51.1,28.2,0.3,1,,,,64.3,20
SAN MARCOS CISD,SAN MARCOS H S,HAYS,-95.640516999999875,32.099056,13155 HWY 175 E,LARUE,75770,105902001,01-01-07,1858,104,1195,539,1,19,,,,1049,61,5.6,64.3,29,0.1,1,,,,56.5,3.3
SAN MARCOS CISD,PRIDE HIGH SCHOOL,HAYS,-94.70816,32.473436,1311 LILLY ST,LONGVIEW,75602,105902002,01-01-07,87,0,64,23,0,0,,,,47,2,0,73.6,26.4,0,0,,,,54,2.3
SAN MARCOS CISD,HAYS CO JUVENILE JUSTICE ALTERNAT,HAYS,-98.554146,29.395776,1626 THOMPSON PL,SAN ANTONIO,78226,105902004,01-01-07,5,0,5,0,0,0,,,,5,1,0,100,0,0,0,,,,100,20
SAN MARCOS CISD,GOODNIGHT J H,HAYS,-99.502136,27.512846,1508 SAN EDUARDO,LAREDO,78040,105902041,01-01-07,543,42,373,124,0,4,,,,390,33,7.7,68.7,22.8,0,0.7,,,,71.8,6.1
SAN MARCOS CISD,MILLER J H,HAYS,-95.841698,30.539282,9477 PANTHER DR,RICHARDS,77873,105902043,01-01-07,522,32,320,164,0,6,,,,312,22,6.1,61.3,31.4,0,1.1,,,,59.8,4.2
SAN MARCOS CISD,BOWIE EL,HAYS,-94.971211193999693,29.366455054000483,1431 BAYOU RD,LA MARQUE,77568,105902101,01-01-07,697,20,549,121,0,7,,,,524,131,2.9,78.8,17.4,0,1,,,,75.2,18.8
SAN MARCOS CISD,CROCKETT EL,HAYS,-95.316924,33.525667,247 CHURCH,DEPORT,75435,105902102,01-01-07,725,28,470,221,1,5,,,,468,52,3.9,64.8,30.5,0.1,0.7,,,,64.6,7.2
SAN MARCOS CISD,DEZAVALA EL,HAYS,-96.116877,32.37205200000011,822 W MASON,MABANK,75147,105902103,01-01-07,684,23,519,139,3,0,,,,468,70,3.4,75.9,20.3,0.4,0,,,,68.4,10.2
SAN MARCOS CISD,BONHAM PK,HAYS,-97.407519,32.858960000000131,6716 BOB HANGER RD,FORT WORTH,76179,105902104,01-01-07,382,15,334,32,0,1,,,,345,63,3.9,87.4,8.4,0,0.3,,,,90.3,16.5
SAN MARCOS CISD,TRAVIS EL,HAYS,-96.46835,30.491102000000133,FM 2155,SNOOK,77878,105902105,01-01-07,642,38,456,141,2,5,,,,512,62,5.9,71,22,0.3,0.8,,,,79.8,9.7
SAN MARCOS CISD,HERNANDEZ INT,HAYS,-94.358066,32.761427,304 W BROADWAY,JEFFERSON,75657,105902107,01-01-07,1034,49,706,272,4,3,,,,695,89,4.7,68.3,26.3,0.4,0.3,,,,67.2,8.6
DRIPPING SPRINGS ISD,DRIPPING SPRINGS H S,HAYS,-102.157647,32.029405,5107 GREATHOUSE AVE,MIDLAND,79707,105904001,01-01-07,1172,11,131,1010,7,13,,,,74,13,0.9,11.2,86.2,0.6,1.1,,,,6.3,1.1
DRIPPING SPRINGS ISD,DRIPPING SPRINGS MIDDLE,HAYS,-96.999298,32.81801,310 DAVIS AVE,IRVING,75061,105904041,01-01-07,877,6,112,747,4,8,,,,88,15,0.7,12.8,85.2,0.5,0.9,,,,10,1.7
DRIPPING SPRINGS ISD,DRIPPING SPRINGS ELEMENTARY SCHOO,HAYS,-96.964883,33.225135,1000 FM 2931,AUBREY,76227,105904101,01-01-07,899,6,123,754,1,15,,,,94,45,0.7,13.7,83.9,0.1,1.7,,,,10.5,5
DRIPPING SPRINGS ISD,WALNUT SPRINGS ELEMENTARY SCHOOL,HAYS,-95.80271,32.684353,131 VZCR 1901,FRUITVALE,75127,105904102,01-01-07,809,3,117,676,4,9,,,,137,46,0.4,14.5,83.6,0.5,1.1,,,,16.9,5.7
HAYS CISD,JACK C HAYS H S,HAYS,-96.987905999999896,32.719008,1301 E CORAL WAY,GRAND PRAIRIE,75051,105906001,01-01-07,1709,51,752,889,7,10,,,,446,60,3,44,52,0.4,0.6,,,,26.1,3.5
HAYS CISD,ALTER IMPACT CTR,HAYS,-97.611343578999652,30.442779129000535,616 FM 685 SUITES 201-206B,PFLUGERVILLE,78660,105906002,01-01-07,76,5,51,20,0,0,,,,39,2,6.6,67.1,26.3,0,0,,,,51.3,2.6
HAYS CISD,HAYS CO JUVENILE JUSTICE ALT ED P,HAYS,-96.35947,33.172311,501 HWY 78 N,FARMERSVILLE,75442,105906003,01-01-07,11,0,9,2,0,0,,,,4,1,0,81.8,18.2,0,0,,,,36.4,9.1
HAYS CISD,ACADEMY AT HAYS,HAYS,-98.377007,32.245503,21261 N FM 219,LINGLEVILLE,76461,105906004,01-01-07,113,3,59,50,1,0,,,,42,5,2.7,52.2,44.2,0.9,0,,,,37.2,4.4
HAYS CISD,LEHMAN HIGH SCHOOL,HAYS,-95.311584,29.772386,5910 MARKET ST,HOUSTON,77020,105906005,01-01-07,1301,98,831,353,8,11,,,,606,49,7.5,63.9,27.1,0.6,0.8,,,,46.6,3.8
HAYS CISD,R C BARTON MIDDLE SCHOOL,HAYS,-98.45005,29.58751,16080 HENDERSON PASS,SAN ANTONIO,78232,105906041,01-01-07,650,25,350,270,1,4,,,,251,31,3.8,53.8,41.5,0.2,0.6,,,,38.6,4.8
HAYS CISD,DAHLSTROM MIDDLE SCHOOL,HAYS,-98.218155,26.112093000000126,9701 S JACKSON RD,PHARR,78577,105906043,01-01-07,659,21,253,383,0,2,,,,159,28,3.2,38.4,58.1,0,0.3,,,,24.1,4.2
HAYS CISD,WALLACE MIDDLE SCHOOL,HAYS,-98.684719,29.523519,8555 BOWENS CROSSING,SAN ANTONIO,78250,105906044,01-01-07,607,42,363,196,1,5,,,,290,34,6.9,59.8,32.3,0.2,0.8,,,,47.8,5.6
HAYS CISD,ARMANDO CHAPA M S,HAYS,-98.737901,29.431991,200 N GROSENBACHER,SAN ANTONIO,78253,105906045,01-01-07,676,50,424,193,1,8,,,,360,50,7.4,62.7,28.6,0.1,1.2,,,,53.3,7.4
HAYS CISD,KYLE EL,HAYS,-95.180813,32.496594,605 WILDCAT DR,WINONA,75792,105906101,01-01-07,608,46,336,219,0,7,,,,233,14,7.6,55.3,36,0,1.2,,,,38.3,2.3
HAYS CISD,GREEN EL,HAYS,-96.738017,33.169828,15601 CHRISTOPHER LN,FRISCO,75035,105906103,01-01-07,703,14,556,128,3,2,,,,425,337,2,79.1,18.2,0.4,0.3,,,,60.5,47.9
HAYS CISD,BUDA EL,HAYS,-95.111443,29.574633,2465 FALCON PASS DR,HOUSTON,77062,105906106,01-01-07,587,15,239,328,1,4,,,,136,7,2.6,40.7,55.9,0.2,0.7,,,,23.2,1.2
HAYS CISD,ELM GROVE EL,HAYS,-98.068382,33.036223000000106,216 N BENSON,PERRIN,76486,105906107,01-01-07,560,15,99,441,0,5,,,,57,14,2.7,17.7,78.8,0,0.9,,,,10.2,2.5
HAYS CISD,SUSIE FUENTES EL,HAYS,-94.184722346999592,30.343237204000555,770 S 7TH,SILSBEE,77656,105906108,01-01-07,571,41,304,215,5,6,,,,208,24,7.2,53.2,37.7,0.9,1.1,,,,36.4,4.2
HAYS CISD,HEMPHILL EL,HAYS,-99.924957712156242,31.503855104187199,698 S SIMS ST,PAINT ROCK,76866,105906109,01-01-07,955,23,789,136,3,4,,,,750,416,2.4,82.6,14.2,0.3,0.4,,,,78.5,43.6
HAYS CISD,ROSALIO TOBIAS INTERNATIONAL SCHO,HAYS,-95.46894,29.799877,6705 HOUSMAN ST,HOUSTON,77055,105906110,01-01-07,795,41,493,257,1,3,,,,437,138,5.2,62,32.3,0.1,0.4,,,,55,17.4
HAYS CISD,NEGLEY EL,HAYS,-93.957314,29.933425,5701 9TH AVE,PORT ARTHUR,77642,105906111,01-01-07,599,13,153,424,5,4,,,,74,5,2.2,25.5,70.8,0.8,0.7,,,,12.4,0.8
HAYS CISD,SCIENCE HALL EL,HAYS,-94.723128,31.354776000000129,507 KURTH DR,LUFKIN,75904,105906112,01-01-07,672,21,498,146,0,7,,,,402,157,3.1,74.1,21.7,0,1,,,,59.8,23.4
AUSTIN ISD,AUSTIN H S,TRAVIS,-95.248672,29.418522,605 W HOUSE ST,ALVIN,77511,227901002,01-01-07,2141,137,846,1120,7,31,,,,617,90,6.4,39.5,52.3,0.3,1.4,,,,28.8,4.2
AUSTIN ISD,JOHNSTON H S,TRAVIS,-97.131662,32.710079,2011 S FIELDER RD,ARLINGTON,76013,227901003,01-01-07,711,114,584,13,0,0,,,,580,145,16,82.1,1.8,0,0,,,,81.6,20.4
AUSTIN ISD,LANIER H S,TRAVIS,-98.685745,29.439655,600 ELLISON N,SAN ANTONIO,78251,227901004,01-01-07,1584,229,1195,112,5,43,,,,1250,490,14.5,75.4,7.1,0.3,2.7,,,,78.9,30.9
AUSTIN ISD,MCCALLUM H S,TRAVIS,-95.872253999999884,32.693038000000115,804 E PINE,EDGEWOOD,75117,227901005,01-01-07,1746,386,519,816,10,15,,,,619,70,22.1,29.7,46.7,0.6,0.9,,,,35.5,4
AUSTIN ISD,REAGAN H S,TRAVIS,-97.348891,32.882881,1301 HIGH COUNTRY TRL,FORT WORTH,76131,227901006,01-01-07,968,321,625,19,0,3,,,,808,249,33.2,64.6,2,0,0.3,,,,83.5,25.7
AUSTIN ISD,TRAVIS H S,TRAVIS,-94.746825,31.324665,1014 ALLENDALE DR,LUFKIN,75904,227901007,01-01-07,1488,209,1181,84,2,12,,,,1190,324,14,79.4,5.6,0.1,0.8,,,,80,21.8
AUSTIN ISD,CROCKETT H S,TRAVIS,-98.051689,30.745706,315 MAIN,BERTRAM,78605,227901008,01-01-07,1976,186,1187,575,7,21,,,,1013,209,9.4,60.1,29.1,0.4,1.1,,,,51.3,10.6
AUSTIN ISD,ANDERSON H S,TRAVIS,-95.342597,29.694364000000117,5001 PERRY ST,HOUSTON,77021,227901009,01-01-07,2016,159,442,1285,5,125,,,,341,47,7.9,21.9,63.7,0.2,6.2,,,,16.9,2.3
AUSTIN ISD,JOHNSON H S,TRAVIS,-98.319238,26.24272,200 E TWO MILE RD,MISSION,78574,227901010,01-01-07,1687,517,610,442,4,114,,,,867,136,30.6,36.2,26.2,0.2,6.8,,,,51.4,8.1
AUSTIN ISD,ALTERNATIVE LEARNING CENTER,TRAVIS,-101.932243,33.551967,4602 CHICAGO AVE,LUBBOCK,79414,227901012,01-01-07,202,61,120,17,1,3,,,,154,35,30.2,59.4,8.4,0.5,1.5,,,,76.2,17.3
AUSTIN ISD,BOWIE H S,TRAVIS,-96.428049,32.905392,2051 TRAIL GLEN,ROCKWALL,75032,227901013,01-01-07,2805,120,726,1807,16,136,,,,217,25,4.3,25.9,64.4,0.6,4.8,,,,7.7,0.9
AUSTIN ISD,GARZA INDEPENDENCE H S,TRAVIS,-98.180164,26.205248,200 E EXPY 83 STE E,PHARR,78577,227901015,01-01-07,309,35,111,160,2,1,,,,95,6,11.3,35.9,51.8,0.6,0.3,,,,30.7,1.9
AUSTIN ISD,AKINS H S,TRAVIS,-101.853242,33.578024,1628 19TH ST,LUBBOCK,79401,227901017,01-01-07,2340,285,1533,454,5,63,,,,1315,215,12.2,65.5,19.4,0.2,2.7,,,,56.2,9.2
AUSTIN ISD,INTERNATIONAL H S,TRAVIS,-101.68332,33.660425,403 7TH ST,IDALOU,79329,227901029,01-01-07,260,3,241,7,0,9,,,,239,251,1.2,92.7,2.7,0,3.5,,,,91.9,96.5
AUSTIN ISD,TRAVIS COUNTY JUVENILE DETENTION,TRAVIS,-95.4802,29.717602000000106,5815 ALDER DR,HOUSTON,77081,227901030,01-01-07,110,21,70,17,1,1,,,,47,16,19.1,63.6,15.5,0.9,0.9,,,,42.7,14.5
AUSTIN ISD,PHOENIX ACADEMY,TRAVIS,-98.523758,29.367618,834 W SOUTHCROSS BLVD,SAN ANTONIO,78211,227901032,01-01-07,37,3,22,12,0,0,,,,6,2,8.1,59.5,32.4,0,0,,,,16.2,5.4
AUSTIN ISD,LEADERSHIP ACADEMY,TRAVIS,-95.466091,29.93682,3171 N SAM HOUSTON PKWY W,HOUSTON,77038,227901035,01-01-07,50,15,25,10,0,0,,,,15,10,30,50,20,0,0,,,,30,20
AUSTIN ISD,TRAVIS COUNTY J J A E P,TRAVIS,-95.411652,29.671552,9115 KIRBY DR,HOUSTON,77054,227901036,01-01-07,20,4,13,3,0,0,,,,10,7,20,65,15,0,0,,,,50,35
AUSTIN ISD,FULMORE M S,TRAVIS,-97.39817,32.814209,5250 ESTRELLA DR,FORT WORTH,76106,227901043,01-01-07,1022,128,688,184,4,18,,,,731,199,12.5,67.3,18,0.4,1.8,,,,71.5,19.5
AUSTIN ISD,KEALING M S,TRAVIS,-106.194827,31.675266000000125,400 KENAZO AVE,EL PASO,79928,227901044,01-01-07,1236,293,411,448,3,81,,,,596,79,23.7,33.3,36.2,0.2,6.6,,,,48.2,6.4
AUSTIN ISD,LAMAR M S,TRAVIS,-98.651101,29.539823,10419 OLD PRUE RD,SAN ANTONIO,78249,227901045,01-01-07,682,97,251,310,4,20,,,,318,66,14.2,36.8,45.5,0.6,2.9,,,,46.6,9.7
AUSTIN ISD,BURNET M S,TRAVIS,-96.751146,33.127628,6075 INDEPENDENCE PKWY,FRISCO,75035,227901046,01-01-07,1011,162,753,75,1,20,,,,905,380,16,74.5,7.4,0.1,2,,,,89.5,37.6
AUSTIN ISD,O HENRY M S,TRAVIS,-96.900665,33.026232,1520 POLSER RD,CARROLLTON,75010,227901047,01-01-07,805,69,286,434,2,14,,,,271,38,8.6,35.5,53.9,0.2,1.7,,,,33.7,4.7
AUSTIN ISD,PEARCE M S,TRAVIS,-100.472017,28.688947,10 MEMORIAL DR,EAGLE PASS,78852,227901048,01-01-07,810,328,466,15,0,1,,,,745,207,40.5,57.5,1.9,0,0.1,,,,92,25.6
AUSTIN ISD,PORTER M S,TRAVIS,-97.2945,27.647497,2501 WALDRON RD,CORPUS CHRISTI,78418,227901049,01-01-07,359,26,278,50,2,3,,,,304,82,7.2,77.4,13.9,0.6,0.8,,,,84.7,22.8
AUSTIN ISD,MARTIN M S,TRAVIS,-98.485214,29.321375,12121 S E LOOP 410,SAN ANTONIO,78221,227901051,01-01-07,707,67,627,11,2,0,,,,662,195,9.5,88.7,1.6,0.3,0,,,,93.6,27.6
AUSTIN ISD,MURCHISON M S,TRAVIS,-100.481896,31.461385000000121,1700 N GARFIELD ST,SAN ANGELO,76901,227901052,01-01-07,1210,91,259,775,4,81,,,,230,57,7.5,21.4,64,0.3,6.7,,,,19,4.7
AUSTIN ISD,WEBB M S,TRAVIS,-95.548039,30.70741,2407-A SAM HOUSTON AVE,HUNTSVILLE,77340,227901053,01-01-07,669,98,550,16,1,4,,,,632,320,14.6,82.2,2.4,0.1,0.6,,,,94.5,47.8
AUSTIN ISD,BEDICHEK M S,TRAVIS,-96.686035,32.757525,7900 HUME DR,DALLAS,75227,227901054,01-01-07,1023,102,739,172,1,9,,,,714,153,10,72.2,16.8,0.1,0.9,,,,69.8,15
AUSTIN ISD,DOBIE M S,TRAVIS,-98.488009,29.526803,4941 WALZEM RD,SAN ANTONIO,78218,227901055,01-01-07,865,210,616,29,0,10,,,,800,326,24.3,71.2,3.4,0,1.2,,,,92.5,37.7
AUSTIN ISD,COVINGTON M S,TRAVIS,-94.529296,31.503465,5263 F M 226,WODEN,75978,227901057,01-01-07,908,84,463,341,0,20,,,,422,56,9.3,51,37.6,0,2.2,,,,46.5,6.2
AUSTIN ISD,MENDEZ M S,TRAVIS,-95.342507999999668,29.787764000000553,2903 JENSEN DR,HOUSTON,77026,227901058,01-01-07,1116,140,940,30,3,3,,,,1022,266,12.5,84.2,2.7,0.3,0.3,,,,91.6,23.8
AUSTIN ISD,BAILEY M S,TRAVIS,-95.546417,29.811498,2045 GESSNER,HOUSTON,77080,227901059,01-01-07,1174,47,306,749,6,66,,,,178,22,4,26.1,63.8,0.5,5.6,,,,15.2,1.9
AUSTIN ISD,SMALL M S,TRAVIS,-97.396744,32.137993,310 S AVE F,BLUM,76627,227901060,01-01-07,1139,47,291,741,3,57,,,,186,34,4.1,25.5,65.1,0.3,5,,,,16.3,3
AUSTIN ISD,PAREDES M S,TRAVIS,-97.228737,33.636561,625 KNIGHT DR,LINDSAY,76250,227901061,01-01-07,1054,119,700,199,4,32,,,,662,111,11.3,66.4,18.9,0.4,3,,,,62.8,10.5
AUSTIN ISD,ALLISON EL,TRAVIS,-95.242709,29.978516000000131,2400 COLD RIVER DR,HUMBLE,77338,227901101,01-01-07,511,60,443,7,0,1,,,,484,158,11.7,86.7,1.4,0,0.2,,,,94.7,30.9
AUSTIN ISD,ANDREWS EL,TRAVIS,-97.900013999999885,26.146488,500 S RIO RICO RD,MERCEDES,78570,227901102,01-01-07,606,177,411,17,0,1,,,,582,331,29.2,67.8,2.8,0,0.2,,,,96,54.6
AUSTIN ISD,BARTON HILLS EL,TRAVIS,-96.686842,32.870309,8939 WHITEWING LN,DALLAS,75238,227901103,01-01-07,358,9,80,257,0,12,,,,56,5,2.5,22.3,71.8,0,3.4,,,,15.6,1.4
AUSTIN ISD,BECKER EL,TRAVIS,-96.857771,32.714404000000116,2959 HAMPTON RD,DALLAS,75204,227901104,01-01-07,226,33,180,12,0,1,,,,203,72,14.6,79.6,5.3,0,0.4,,,,89.8,31.9
AUSTIN ISD,BLACKSHEAR EL,TRAVIS,-98.001309,26.19791,1001 W MILE 10,WESLACO,78596,227901105,01-01-07,272,64,205,3,0,0,,,,268,137,23.5,75.4,1.1,0,0,,,,98.5,50.4
AUSTIN ISD,BLANTON EL,TRAVIS,-100.875304,29.372587,720 E DE LA ROSA,DEL RIO,78840,227901106,01-01-07,562,92,450,20,0,0,,,,521,351,16.4,80.1,3.6,0,0,,,,92.7,62.5
AUSTIN ISD,BRENTWOOD EL,TRAVIS,-98.286581,30.582591,1800 COLT CIR,MARBLE FALLS,78654,227901107,01-01-07,412,33,201,171,1,6,,,,241,72,8,48.8,41.5,0.2,1.5,,,,58.5,17.5
AUSTIN ISD,BROOKE EL,TRAVIS,-97.360625,32.760096,100 N UNIVERSITY DR,FORT WORTH,76107,227901108,01-01-07,358,36,301,17,0,4,,,,334,114,10.1,84.1,4.7,0,1.1,,,,93.3,31.8
AUSTIN ISD,BROWN EL,TRAVIS,-99.736281,32.43909,1929 S 11TH,ABILENE,79602,227901109,01-01-07,525,32,470,17,1,5,,,,493,354,6.1,89.5,3.2,0.2,1,,,,93.9,67.4
AUSTIN ISD,BRYKER WOODS EL,TRAVIS,-97.606224,32.019857000000115,1306 CHARLES ST,MORGAN,76671,227901110,01-01-07,426,25,80,299,4,18,,,,51,17,5.9,18.8,70.2,0.9,4.2,,,,12,4
AUSTIN ISD,CAMPBELL EL,TRAVIS,-95.635845,29.755687,14201 BRIAR FOREST,HOUSTON,77077,227901111,01-01-07,401,239,160,2,0,0,,,,370,85,59.6,39.9,0.5,0,0,,,,92.3,21.2
AUSTIN ISD,CASIS EL,TRAVIS,-97.062004,33.173195,4400 LAKEVIEW BLVD,DENTON,76208,227901112,01-01-07,740,22,85,609,0,24,,,,26,20,3,11.5,82.3,0,3.2,,,,3.5,2.7
AUSTIN ISD,CUNNINGHAM EL,TRAVIS,-100.977098,35.562605,2300 PRIMROSE,PAMPA,79065,227901113,01-01-07,540,53,300,159,3,25,,,,311,80,9.8,55.6,29.4,0.6,4.6,,,,57.6,14.8
AUSTIN ISD,DAWSON EL,TRAVIS,-97.638894,30.273572,8509 FM 969 BLDG A,AUSTIN,78724,227901114,01-01-07,373,30,321,22,0,0,,,,328,147,8,86.1,5.9,0,0,,,,87.9,39.4
AUSTIN ISD,ACES- ALTERNATIVE CENTER FOR ELEM,TRAVIS,-98.914391,29.148767000000131,112 BENTSEN DR,DEVINE,78016,227901115,01-01-07,24,13,8,3,0,0,,,,16,2,54.2,33.3,12.5,0,0,,,,66.7,8.3
AUSTIN ISD,GOVALLE EL,TRAVIS,-97.149468,31.557476000000118,1101 N 15TH ST,WACO,76707,227901116,01-01-07,390,68,313,9,0,0,,,,377,133,17.4,80.3,2.3,0,0,,,,96.7,34.1
AUSTIN ISD,GULLETT EL,TRAVIS,-101.387162,35.652586,400 KAYE ST,BORGER,79007,227901117,01-01-07,440,10,48,359,3,20,,,,32,8,2.3,10.9,81.6,0.7,4.5,,,,7.3,1.8
AUSTIN ISD,HARRIS EL,TRAVIS,-95.61497,30.097429,17950 WALLER TOMBALL RD,TOMBALL,77377,227901118,01-01-07,708,106,579,19,4,0,,,,683,466,15,81.8,2.7,0.6,0,,,,96.5,65.8
AUSTIN ISD,HIGHLAND PARK EL,TRAVIS,-98.425182,30.105695,814 ELEVENTH ST,BLANCO,78606,227901119,01-01-07,531,11,54,435,0,31,,,,29,15,2.1,10.2,81.9,0,5.8,,,,5.5,2.8
AUSTIN ISD,JOSLIN EL,TRAVIS,-96.78582,32.885634,6920 MEADOW RD,DALLAS,75230,227901120,01-01-07,360,31,252,70,2,5,,,,288,92,8.6,70,19.4,0.6,1.4,,,,80,25.6
AUSTIN ISD,LEE EL,TRAVIS,-98.551356,29.427652,4415 MONTERREY,SAN ANTONIO,78237,227901121,01-01-07,412,25,92,250,5,40,,,,42,17,6.1,22.3,60.7,1.2,9.7,,,,10.2,4.1
AUSTIN ISD,MAPLEWOOD EL,TRAVIS,-95.622064,29.589605,4455 WATERSIDE ESTATES DR,RICHMOND,77406,227901122,01-01-07,336,137,134,58,0,7,,,,253,59,40.8,39.9,17.3,0,2.1,,,,75.3,17.6
AUSTIN ISD,MATHEWS EL,TRAVIS,-95.198207,29.646618,4221 FOX MEADOW LN,PASADENA,77504,227901123,01-01-07,425,41,143,163,0,78,,,,226,89,9.6,33.6,38.4,0,18.4,,,,53.2,20.9
AUSTIN ISD,METZ EL,TRAVIS,-100.25782,31.476951,18000 WILDCAT DR,WATER VALLEY,76958,227901124,01-01-07,675,12,651,9,1,2,,,,628,301,1.8,96.4,1.3,0.1,0.3,,,,93,44.6
AUSTIN ISD,OAK SPRINGS EL,TRAVIS,-94.018437,29.899475000000109,2441 61ST ST,PORT ARTHUR,77640,227901125,01-01-07,286,94,185,6,0,1,,,,281,57,32.9,64.7,2.1,0,0.3,,,,98.3,19.9
AUSTIN ISD,ORTEGA EL,TRAVIS,-98.295815,29.527856,BLDG 1225,RANDOLPH A F B,78148,227901126,01-01-07,276,59,215,2,0,0,,,,267,98,21.4,77.9,0.7,0,0,,,,96.7,35.5
AUSTIN ISD,SANCHEZ EL,TRAVIS,-97.829598,26.151949,600 PANCHO MAPLES DR,LA FERIA,78559,227901127,01-01-07,660,27,612,21,0,0,,,,600,306,4.1,92.7,3.2,0,0,,,,90.9,46.4
AUSTIN ISD,PEASE EL,TRAVIS,-95.329223,29.901746,4400 ALDINE MAIL RT,HOUSTON,77039,227901128,01-01-07,246,66,118,58,0,4,,,,74,4,26.8,48,23.6,0,1.6,,,,30.1,1.6
AUSTIN ISD,PECAN SPRINGS EL,TRAVIS,-96.587341,32.711748,14900 N SPRING RIDGE CIR,BALCH SPRINGS,75180,227901129,01-01-07,536,220,304,7,2,3,,,,501,195,41,56.7,1.3,0.4,0.6,,,,93.5,36.4
AUSTIN ISD,PLEASANT HILL EL,TRAVIS,-97.908189,30.663651000000137,13125 W STATE HWY 29,LIBERTY HILL,78642,227901130,01-01-07,656,63,526,59,2,6,,,,559,213,9.6,80.2,9,0.3,0.9,,,,85.2,32.5
AUSTIN ISD,READ PRE-K DEMONSTRATION SCH,TRAVIS,-95.84434,33.130094,201 DONELTON ST,CUMBY,75433,227901131,01-01-07,367,44,309,10,1,3,,,,350,234,12,84.2,2.7,0.3,0.8,,,,95.4,63.8
AUSTIN ISD,REILLY EL,TRAVIS,-95.440337,29.161235,1001 W MULBERRY,ANGLETON,77515,227901132,01-01-07,288,18,239,22,0,9,,,,259,158,6.3,83,7.6,0,3.1,,,,89.9,54.9
AUSTIN ISD,RIDGETOP EL,TRAVIS,-95.43003,32.795195,1101 E GOODE ST,QUITMAN,75783,227901133,01-01-07,196,16,154,24,0,2,,,,170,105,8.2,78.6,12.2,0,1,,,,86.7,53.6
AUSTIN ISD,ST ELMO EL,TRAVIS,-94.689956,31.349216,2804 PAUL AVE,LUFKIN,75901,227901136,01-01-07,462,8,419,25,0,10,,,,428,281,1.7,90.7,5.4,0,2.2,,,,92.6,60.8
AUSTIN ISD,SUMMITT EL,TRAVIS,-95.419799,29.151296000000116,1200 PARK LN,ANGLETON,77515,227901138,01-01-07,568,61,151,314,0,42,,,,196,63,10.7,26.6,55.3,0,7.4,,,,34.5,11.1
AUSTIN ISD,SIMS EL,TRAVIS,-100.25782,31.477009,10062 F M HWY 380,VERIBEST,76886,227901139,01-01-07,411,188,220,2,1,0,,,,400,140,45.7,53.5,0.5,0.2,0,,,,97.3,34.1
AUSTIN ISD,TRAVIS HTS EL,TRAVIS,-97.383167,32.845243000000103,6000 OLD DECATUR RD,FORT WORTH,76179,227901140,01-01-07,574,55,377,126,1,15,,,,427,126,9.6,65.7,22,0.2,2.6,,,,74.4,22
AUSTIN ISD,WALNUT CREEK EL,TRAVIS,-103.078952,31.866221,201 N E AVE,KERMIT,79745,227901141,01-01-07,964,85,636,41,0,202,,,,853,597,8.8,66,4.3,0,21,,,,88.5,61.9
AUSTIN ISD,ALLAN EL,TRAVIS,-98.294144,29.35131,7284 FM 1628,SAN ANTONIO,78263,227901142,01-01-07,431,48,376,6,0,1,,,,411,209,11.1,87.2,1.4,0,0.2,,,,95.4,48.5
AUSTIN ISD,PATTON EL,TRAVIS,-102.255117,35.53243,27 JULIAN BIVINS BLVD,BOYS RANCH,79010,227901143,01-01-07,771,60,179,431,1,100,,,,149,65,7.8,23.2,55.9,0.1,13,,,,19.3,8.4
AUSTIN ISD,WOOTEN EL,TRAVIS,-97.428543,27.761868,3502 GREENWOOD,CORPUS CHRISTI,78416,227901144,01-01-07,626,44,548,26,1,7,,,,605,440,7,87.5,4.2,0.2,1.1,,,,96.6,70.3
AUSTIN ISD,ZAVALA EL,TRAVIS,-98.165466780999679,26.305444301000449,411 N 8TH ST,EDINBURG,78541,227901145,01-01-07,488,58,423,5,1,1,,,,465,193,11.9,86.7,1,0.2,0.2,,,,95.3,39.5
AUSTIN ISD,ZILKER EL,TRAVIS,-101.877693,33.571979,2807 25TH ST,LUBBOCK,79410,227901146,01-01-07,447,21,161,256,1,8,,,,201,50,4.7,36,57.3,0.2,1.8,,,,45,11.2
AUSTIN ISD,MENCHACA EL,TRAVIS,-94.433571,30.789916,800 EAGLE DR,WOODVILLE,75979,227901147,01-01-07,906,51,496,299,1,59,,,,416,165,5.6,54.7,33,0.1,6.5,,,,45.9,18.2
AUSTIN ISD,OAK HILL EL,TRAVIS,-96.725644,32.902532,9666 FERRIS BRANCH,DALLAS,75243,227901148,01-01-07,887,28,285,535,2,37,,,,287,151,3.2,32.1,60.3,0.2,4.2,,,,32.4,17
AUSTIN ISD,BARRINGTON EL,TRAVIS,-98.247673,26.245865,4201 N 29TH ST,MCALLEN,78501,227901149,01-01-07,742,85,626,29,0,2,,,,708,453,11.5,84.4,3.9,0,0.3,,,,95.4,61.1
AUSTIN ISD,NORMAN EL,TRAVIS,-96.395897,33.507685,315 HIGHLAND,WHITEWRIGHT,75491,227901150,01-01-07,589,210,369,8,0,2,,,,567,194,35.7,62.6,1.4,0,0.3,,,,96.3,32.9
AUSTIN ISD,PILLOW EL,TRAVIS,-96.786094,32.882864,9924 HILLCREST RD,DALLAS,75230,227901151,01-01-07,523,116,245,117,4,41,,,,329,163,22.2,46.8,22.4,0.8,7.8,,,,62.9,31.2
AUSTIN ISD,WOOLDRIDGE EL,TRAVIS,-96.86853,32.778227,2940 SINGLETON BLVD,DALLAS,75212,227901152,01-01-07,957,64,845,23,0,25,,,,924,725,6.7,88.3,2.4,0,2.6,,,,96.6,75.8
AUSTIN ISD,DOSS EL,TRAVIS,-102.373079,33.582136,1100 AVE D,LEVELLAND,79336,227901154,01-01-07,650,15,98,435,4,98,,,,79,109,2.3,15.1,66.9,0.6,15.1,,,,12.2,16.8
AUSTIN ISD,HILL EL,TRAVIS,-95.24702,31.934931,818 S W LOOP 456,JACKSONVILLE,75766,227901155,01-01-07,728,37,125,514,2,50,,,,71,41,5.1,17.2,70.6,0.3,6.9,,,,9.8,5.6
AUSTIN ISD,ODOM EL,TRAVIS,-95.549452,30.030278,18218 THEISS MAIL RD,KLEIN,77379,227901156,01-01-07,792,68,643,78,2,1,,,,686,280,8.6,81.2,9.8,0.3,0.1,,,,86.6,35.4
AUSTIN ISD,WINN EL,TRAVIS,-95.447381,30.009915,743 E CYPRESSWOOD DR,SPRING,77373,227901157,01-01-07,674,327,328,14,0,5,,,,627,245,48.5,48.7,2.1,0,0.7,,,,93,36.4
AUSTIN ISD,SUNSET VALLEY EL,TRAVIS,-97.898486,28.886882,221 N ESPLANADE ST,KARNES CITY,78118,227901158,01-01-07,437,17,344,67,3,6,,,,329,200,3.9,78.7,15.3,0.7,1.4,,,,75.3,45.8
AUSTIN ISD,GRAHAM EL,TRAVIS,-96.522204,32.899778,8200 SCHRADE RD,ROWLETT,75088,227901159,01-01-07,713,151,524,34,0,4,,,,649,395,21.2,73.5,4.8,0,0.6,,,,91,55.4
AUSTIN ISD,LINDER EL,TRAVIS,-106.58656,31.847123,250 LINDBERG AVE,EL PASO,79932,227901160,01-01-07,860,71,761,22,0,6,,,,815,424,8.3,88.5,2.6,0,0.7,,,,94.8,49.3
AUSTIN ISD,COOK EL,TRAVIS,-98.119597,26.272643000000127,2510 S CESAR CHAVEZ,EDINBURG,78539,227901161,01-01-07,796,152,580,52,0,12,,,,730,477,19.1,72.9,6.5,0,1.5,,,,91.7,59.9
AUSTIN ISD,HOUSTON EL,TRAVIS,-97.424605,25.886396,2800 S DAKOTA AVE,BROWNSVILLE,78521,227901162,01-01-07,942,80,835,25,1,1,,,,885,496,8.5,88.6,2.7,0.1,0.1,,,,93.9,52.7
AUSTIN ISD,HART EL,TRAVIS,-95.433499,29.97789,2200 WITTERSHAW DR,HOUSTON,77090,227901163,01-01-07,890,88,773,21,2,6,,,,842,529,9.9,86.9,2.4,0.2,0.7,,,,94.6,59.4
AUSTIN ISD,PICKLE EL,TRAVIS,-97.120707,31.570356,1020 ELM ST BLDG 100,WACO,76704,227901164,01-01-07,672,101,570,1,0,0,,,,651,464,15,84.8,0.1,0,0,,,,96.9,69
AUSTIN ISD,MCBEE EL,TRAVIS,-95.818965,29.904074,9120 KATY HOCKLEY RD,KATY,77493,227901165,01-01-07,648,112,509,27,0,0,,,,613,384,17.3,78.5,4.2,0,0,,,,94.6,59.3
AUSTIN ISD,WILLIAMS EL,TRAVIS,-102.417497,32.911867,1441 HWY 303,LOOP,79342,227901166,01-01-07,607,38,482,84,0,3,,,,446,192,6.3,79.4,13.8,0,0.5,,,,73.5,31.6
AUSTIN ISD,LANGFORD EL,TRAVIS,-96.759737,32.77337,1718 R B CULLUM BLVD,DALLAS,75210,227901168,01-01-07,841,87,722,27,0,5,,,,784,448,10.3,85.9,3.2,0,0.6,,,,93.2,53.3
AUSTIN ISD,BOONE EL,TRAVIS,-106.302514,31.751171,1599 GEORGE DIETER DR,EL PASO,79936,227901170,01-01-07,553,51,285,199,3,15,,,,271,70,9.2,51.5,36,0.5,2.7,,,,49,12.7
AUSTIN ISD,PALM EL,TRAVIS,-106.483123,31.775401,1300 CIR DR,EL PASO,79925,227901171,01-01-07,735,112,583,36,0,4,,,,606,224,15.2,79.3,4.9,0,0.5,,,,82.4,30.5
AUSTIN ISD,KOCUREK EL,TRAVIS,-96.637504,32.799265,2424 LARCHMONT DR,MESQUITE,75150,227901172,01-01-07,673,78,351,224,1,19,,,,371,65,11.6,52.2,33.3,0.1,2.8,,,,55.1,9.7
AUSTIN ISD,CASEY EL,TRAVIS,-96.144645,32.335811,306 HARBOR POINT RD,GUN BARREL CITY,75156,227901173,01-01-07,917,97,573,212,2,33,,,,566,127,10.6,62.5,23.1,0.2,3.6,,,,61.7,13.8
AUSTIN ISD,RODRIGUEZ EL,TRAVIS,-98.923889,31.979965,3400 CR 411 E,MAY,76857,227901174,01-01-07,909,110,776,22,1,0,,,,875,496,12.1,85.4,2.4,0.1,0,,,,96.3,54.6
AUSTIN ISD,WIDEN EL,TRAVIS,-96.611095,33.12787,1101 W LUCAS RD,LUCAS,75002,227901175,01-01-07,807,88,702,16,1,0,,,,733,393,10.9,87,2,0.1,0,,,,90.8,48.7
AUSTIN ISD,GALINDO EL,TRAVIS,-101.68393,33.661077,601 S WALNUT,IDALOU,79329,227901176,01-01-07,736,34,650,46,4,2,,,,673,335,4.6,88.3,6.3,0.5,0.3,,,,91.4,45.5
AUSTIN ISD,JORDAN EL,TRAVIS,-95.634374,30.031998,19100 NORTHPOINTE RIDGE LN,TOMBALL,77377,227901178,01-01-07,687,204,477,6,0,0,,,,660,342,29.7,69.4,0.9,0,0,,,,96.1,49.8
AUSTIN ISD,DAVIS EL,TRAVIS,-95.504836,29.675575,6333 S BRAESWOOD,HOUSTON,77096,227901179,01-01-07,672,49,154,380,8,81,,,,152,115,7.3,22.9,56.5,1.2,12.1,,,,22.6,17.1
AUSTIN ISD,KIKER EL,TRAVIS,-95.373465,29.549431000000137,3003 SOUTHWYCK PKWY,PEARLAND,77584,227901180,01-01-07,706,8,92,535,0,71,,,,8,17,1.1,13,75.8,0,10.1,,,,1.1,2.4
AUSTIN ISD,MILLS EL,TRAVIS,-96.846954,32.751562,719 N MONTCLAIR AVE,DALLAS,75208,227901181,01-01-07,892,28,151,586,1,126,,,,47,102,3.1,16.9,65.7,0.1,14.1,,,,5.3,11.4
AUSTIN ISD,BARANOFF EL,TRAVIS,-97.176867,32.60067,2491 GERTIE BARRETT RD,MANSFIELD,76063,227901182,01-01-07,777,25,164,538,5,45,,,,41,18,3.2,21.1,69.2,0.6,5.8,,,,5.3,2.3
AUSTIN ISD,COWAN EL,TRAVIS,-95.21445,29.84789,17010 BEAUMONT HWY,HOUSTON,77049,227901183,01-01-07,556,32,187,291,3,43,,,,85,45,5.8,33.6,52.3,0.5,7.7,,,,15.3,8.1
AUSTIN ISD,CLAYTON EL,TRAVIS,-106.473216,31.754497,900 S COTTON ST,EL PASO,79901,227901184,01-01-07,598,13,86,442,1,56,,,,37,31,2.2,14.4,73.9,0.2,9.4,,,,6.2,5.2
AUSTIN ISD,PEREZ EL,TRAVIS,-95.408927,29.793483,1120 W 13TH ST,HOUSTON,77008,227901190,01-01-07,648,70,529,43,0,6,,,,572,269,10.8,81.6,6.6,0,0.9,,,,88.3,41.5
AUSTIN ISD,AUSTIN ST HOSPITAL,TRAVIS,-98.457222,29.41151600000012,823 S GEVERS ST,SAN ANTONIO,78203,227901250,01-01-07,22,6,4,12,0,0,,,,1,1,27.3,18.2,54.5,0,0,,,,4.5,4.5
AUSTIN ISD,ROSEDALE,TRAVIS,-99.764519,28.437428,1295 MAY AVE,ASHERTON,78827,227901251,01-01-07,71,11,29,30,0,1,,,,45,9,15.5,40.8,42.3,0,1.4,,,,63.4,12.7
PFLUGERVILLE ISD,PFLUGERVILLE H S,TRAVIS,-95.504195999999865,32.062197,100 PERRY ST,FRANKSTON,75763,227904001,01-01-07,2108,490,564,878,4,172,,,,548,62,23.2,26.8,41.7,0.2,8.2,,,,26,2.9
PFLUGERVILLE ISD,ALTER LEARNING CTR,TRAVIS,-100.404381,32.479646,1205 RAGLAND,SWEETWATER,79556,227904002,01-01-07,179,52,86,40,0,1,,,,69,10,29.1,48,22.3,0,0.6,,,,38.5,5.6
PFLUGERVILLE ISD,JOHN B CONNALLY H S,TRAVIS,-97.542871,32.911582,1010 BOYD RD,AZLE,76020,227904003,01-01-07,1965,516,701,476,5,267,,,,800,200,26.3,35.7,24.2,0.3,13.6,,,,40.7,10.2
PFLUGERVILLE ISD,HENDRICKSON HS,TRAVIS,-95.393533161999699,29.863995871000416,"406 E RITTENHOUSE ST, BLDG A",HOUSTON,77076,227904004,01-01-07,1433,298,357,731,1,46,,,,418,26,20.8,24.9,51,0.1,3.2,,,,29.2,1.8
PFLUGERVILLE ISD,PFLUGERVILLE MIDDLE,TRAVIS,-94.065563999999881,33.456436,4826 UNIVERSITY PARK,TEXARKANA,75503,227904041,01-01-07,1060,254,332,395,4,75,,,,396,71,24,31.3,37.3,0.4,7.1,,,,37.4,6.7
PFLUGERVILLE ISD,WESTVIEW MIDDLE,TRAVIS,-94.381751,29.783149,1931 STATE HWY 124,WINNIE,77665,227904042,01-01-07,844,221,348,195,1,79,,,,476,110,26.2,41.2,23.1,0.1,9.4,,,,56.4,13
PFLUGERVILLE ISD,PARK CREST MIDDLE,TRAVIS,-97.552468,30.553853,3160 LIMMER LOOP,HUTTO,78634,227904043,01-01-07,904,249,240,353,4,58,,,,302,23,27.5,26.5,39,0.4,6.4,,,,33.4,2.5
PFLUGERVILLE ISD,ALTER LEARNING MIDDLE,TRAVIS,-97.884146,30.379465,4001 QUINLAN PARK RD,AUSTIN,78732,227904044,01-01-07,23,9,8,6,0,0,,,,14,2,39.1,34.8,26.1,0,0,,,,60.9,8.7
PFLUGERVILLE ISD,DESSAU MIDDLE SCHOOL,TRAVIS,-98.023605,32.349615,710 CHURCH ST,BLUFF DALE,76433,227904045,01-01-07,987,259,401,203,5,119,,,,533,140,26.2,40.6,20.6,0.5,12.1,,,,54,14.2
PFLUGERVILLE ISD,KELLY LANE M S,TRAVIS,-98.24842,26.199234,2500 GALVESTON AVE,MCALLEN,78501,227904046,01-01-07,654,93,146,392,2,21,,,,122,9,14.2,22.3,59.9,0.3,3.2,,,,18.7,1.4
PFLUGERVILLE ISD,PFLUGERVILLE EL,TRAVIS,-98.470009,29.432119,515 WILLOW ST,SAN ANTONIO,78202,227904101,01-01-07,536,84,167,252,1,32,,,,174,45,15.7,31.2,47,0.2,6,,,,32.5,8.4
PFLUGERVILLE ISD,PARMER LANE EL,TRAVIS,-98.439301,33.574532,100 ST MARYS DR,WINDTHORST,76389,227904102,01-01-07,673,87,389,110,1,86,,,,429,343,12.9,57.8,16.3,0.1,12.8,,,,63.7,51
PFLUGERVILLE ISD,TIMMERMAN EL,TRAVIS,-97.197772,32.765093,7300 JOHN T WHITE RD,FORT WORTH,76120,227904103,01-01-07,478,86,132,179,4,77,,,,147,78,18,27.6,37.4,0.8,16.1,,,,30.8,16.3
PFLUGERVILLE ISD,NORTHWEST EL,TRAVIS,-98.5009,29.538936,10727 MEMORY LN,SAN ANTONIO,78216,227904104,01-01-07,495,124,194,118,0,59,,,,295,113,25.1,39.2,23.8,0,11.9,,,,59.6,22.8
PFLUGERVILLE ISD,DESSAU EL,TRAVIS,-97.138969,31.537426,2100 ROSS,WACO,76706,227904105,01-01-07,540,168,190,117,2,63,,,,328,53,31.1,35.2,21.7,0.4,11.7,,,,60.7,9.8
PFLUGERVILLE ISD,WINDERMERE EL,TRAVIS,-95.419502,29.747688,2008 KIRBY DR,HOUSTON,77019,227904106,01-01-07,513,147,162,161,3,40,,,,217,29,28.7,31.6,31.4,0.6,7.8,,,,42.3,5.7
PFLUGERVILLE ISD,RIVER OAKS EL,TRAVIS,-98.17318,26.217392000000132,600 E SIOUX RD,SAN JUAN,78589,227904107,01-01-07,536,165,164,110,1,96,,,,350,118,30.8,30.6,20.5,0.2,17.9,,,,65.3,22
PFLUGERVILLE ISD,BROOKHOLLOW EL,TRAVIS,-97.764752,29.275056,800 RANCHO RD,NIXON,78140,227904108,01-01-07,647,136,160,291,1,59,,,,206,54,21,24.7,45,0.2,9.1,,,,31.8,8.3
PFLUGERVILLE ISD,SPRINGHILL EL,TRAVIS,-96.277389,31.623415,316 N 10TH,TEAGUE,75860,227904109,01-01-07,638,135,218,245,3,37,,,,261,67,21.2,34.2,38.4,0.5,5.8,,,,40.9,10.5
PFLUGERVILLE ISD,WINDERMERE PRI,TRAVIS,-97.754149,30.237836000000133,2515 S CONGRESS AVE,AUSTIN,78704,227904110,01-01-07,615,153,226,186,2,48,,,,274,97,24.9,36.7,30.2,0.3,7.8,,,,44.6,15.8
PFLUGERVILLE ISD,COPPERFIELD EL,TRAVIS,-98.695778,29.3892,10355 KRIEWALD RD,SAN ANTONIO,78245,227904111,01-01-07,783,113,561,71,1,37,,,,598,445,14.4,71.6,9.1,0.1,4.7,,,,76.4,56.8
PFLUGERVILLE ISD,MURCHISON ELEMENTARY SCHOOL,TRAVIS,-95.766387,29.560636,2014 LAMAR DR,RICHMOND,77469,227904112,01-01-07,598,87,134,348,2,27,,,,88,31,14.5,22.4,58.2,0.3,4.5,,,,14.7,5.2
PFLUGERVILLE ISD,DELCO PRIMARY SCHOOL,TRAVIS,-100.46441,32.8527160000001,102 N MCKINLEY AVE,ROTAN,79546,227904113,01-01-07,646,193,220,136,1,96,,,,378,143,29.9,34.1,21.1,0.2,14.9,,,,58.5,22.1
PFLUGERVILLE ISD,CALDWELL ELEMENTARY,TRAVIS,-98.710287,29.798651,1 GREYHOUND LN,BOERNE,78006,227904114,01-01-07,662,109,302,181,2,68,,,,302,238,16.5,45.6,27.3,0.3,10.3,,,,45.6,36
PFLUGERVILLE ISD,ROWE LANE EL,TRAVIS,-96.299726,32.58309,1605 RAND RD,KAUFMAN,75142,227904115,01-01-07,551,76,145,322,0,8,,,,123,15,13.8,26.3,58.4,0,1.5,,,,22.3,2.7
PFLUGERVILLE ISD,HIGHLAND PARK EL,TRAVIS,-97.741806,26.178229,801 S PALM BLVD,HARLINGEN,78552,227904116,01-01-07,666,182,267,173,1,43,,,,351,170,27.3,40.1,26,0.2,6.5,,,,52.7,25.5
MANOR ISD,MANOR H S,TRAVIS,-96.760696,32.951465000000105,1250 BELT LINE RD,RICHARDSON,75080,227907001,01-01-07,1054,319,514,213,0,8,,,,663,105,30.3,48.8,20.2,0,0.8,,,,62.9,10
MANOR ISD,EXCEL HIGH SCHOOL,TRAVIS,-95.70285,29.044734,800 N ELM ST,SWEENY,77480,227907002,01-01-07,22,4,16,2,0,0,,,,11,0,18.2,72.7,9.1,0,0,,,,50,0
MANOR ISD,TRAVIS CO J J A E P,TRAVIS,-95.327480399625856,32.134720998145269,218 SCHOOLHOUSE RD,BULLARD,75757,227907003,01-01-07,1,0,1,0,0,0,,,,1,0,0,100,0,0,0,,,,100,0
MANOR ISD,MANOR MIDDLE SCHOOL,TRAVIS,-98.63657,29.402487,2718 FRONTIER DR,SAN ANTONIO,78227,227907041,01-01-07,1015,305,522,173,0,15,,,,695,141,30,51.4,17,0,1.5,,,,68.5,13.9
MANOR ISD,MANOR ELEMENTARY SCHOOL,TRAVIS,-96.295259,32.746675,1351 COLQUITT RD,TERRELL,75160,227907101,01-01-07,781,246,411,122,0,2,,,,527,159,31.5,52.6,15.6,0,0.3,,,,67.5,20.4
MANOR ISD,BLUEBONNET TRAIL ELEMENTARY SCHOO,TRAVIS,-95.408410999999887,29.923499000000103,11555 AIRLINE,HOUSTON,77037,227907102,01-01-07,781,173,453,103,1,51,,,,498,322,22.2,58,13.2,0.1,6.5,,,,63.8,41.2
MANOR ISD,DECKER ELEMENTARY SCHOOL,TRAVIS,-101.735183,34.204889,908 ASH ST,PLAINVIEW,79072,227907104,01-01-07,901,187,658,50,1,5,,,,794,479,20.8,73,5.5,0.1,0.6,,,,88.1,53.2
MANOR ISD,BLAKE MANOR ELEMENTARY,TRAVIS,-101.601602,35.637835,1015 N MADDOX AVE,DUMAS,79029,227907105,01-01-07,541,136,272,130,3,0,,,,354,38,25.1,50.3,24,0.6,0,,,,65.4,7
EANES ISD,WESTLAKE H S,TRAVIS,-96.880615,32.994295,2915 SCOTT MILL RD,CARROLLTON,75007,227909001,01-01-07,2386,14,137,2031,15,189,,,,59,24,0.6,5.7,85.1,0.6,7.9,,,,2.5,1
EANES ISD,HILL COUNTRY MIDDLE,TRAVIS,-95.582999,29.619823,500 DULLES AVE,SUGAR LAND,77478,227909041,01-01-07,849,10,52,719,4,64,,,,23,17,1.2,6.1,84.7,0.5,7.5,,,,2.7,2
EANES ISD,WEST RIDGE MIDDLE,TRAVIS,-106.244013,31.599683,12625 ALAMEDA AVE,CLINT,79836,227909042,01-01-07,852,4,58,718,1,71,,,,28,7,0.5,6.8,84.3,0.1,8.3,,,,3.3,0.8
EANES ISD,EANES EL,TRAVIS,-97.651719,31.056286,1001 FM 2410,HARKER HEIGHTS,76548,227909101,01-01-07,463,3,27,393,1,39,,,,14,3,0.6,5.8,84.9,0.2,8.4,,,,3,0.6
EANES ISD,CEDAR CREEK EL,TRAVIS,-95.44413,30.005338,1500 SOUTHRIDGE,HOUSTON,77090,227909102,01-01-07,397,7,51,294,1,44,,,,21,23,1.8,12.8,74.1,0.3,11.1,,,,5.3,5.8
EANES ISD,VALLEY VIEW EL,TRAVIS,-94.937324,31.488756000000144,160 RUSK AVE,WELLS,75976,227909103,01-01-07,422,9,46,345,0,22,,,,29,28,2.1,10.9,81.8,0,5.2,,,,6.9,6.6
EANES ISD,FOREST TRAIL EL,TRAVIS,-98.588302999999883,29.423337000000117,627 S ACME RD,SAN ANTONIO,78237,227909104,01-01-07,602,8,31,492,1,70,,,,9,21,1.3,5.1,81.7,0.2,11.6,,,,1.5,3.5
EANES ISD,BARTON CREEK EL,TRAVIS,-94.001464,30.127876000000107,690 ORANGE ST,VIDOR,77662,227909105,01-01-07,391,4,30,286,0,71,,,,10,9,1,7.7,73.1,0,18.2,,,,2.6,2.3
EANES ISD,BRIDGE POINT EL,TRAVIS,-96.65957,32.936137000000144,2202 RICHOAK DR,GARLAND,75044,227909106,01-01-07,854,5,24,767,2,56,,,,5,3,0.6,2.8,89.8,0.2,6.6,,,,0.6,0.4
DEL VALLE ISD,DEL VALLE H S,TRAVIS,-96.741417,33.091924,2520 SCENIC DR,PLANO,75025,227910001,01-01-07,1853,345,1253,229,6,20,,,,1226,138,18.6,67.6,12.4,0.3,1.1,,,,66.2,7.4
DEL VALLE ISD,DEL VALLE OPPORTUNITY CTR,TRAVIS,-98.123076999999853,26.157361,810 E EL GATO,ALAMO,78516,227910002,01-01-07,163,22,124,16,1,0,,,,117,23,13.5,76.1,9.8,0.6,0,,,,71.8,14.1
DEL VALLE ISD,TRAVIS CO J J A E P,TRAVIS,-95.627186,30.099842000000123,1110 INWOOD,TOMBALL,77375,227910005,01-01-07,7,3,2,2,0,0,,,,2,1,42.9,28.6,28.6,0,0,,,,28.6,14.3
DEL VALLE ISD,DEL VALLE J H,TRAVIS,-97.402222999999879,32.851457,6225 CRYSTAL LK DR,FORT WORTH,76179,227910041,01-01-07,689,133,471,77,2,6,,,,483,79,19.3,68.4,11.2,0.3,0.9,,,,70.1,11.5
DEL VALLE ISD,JOHN P OJEDA JR HIGH,TRAVIS,-95.678641,29.975602,16825 SPRING CYPRESS RD,CYPRESS,77429,227910042,01-01-07,594,78,445,67,0,4,,,,490,82,13.1,74.9,11.3,0,0.7,,,,82.5,13.8
DEL VALLE ISD,POPHAM EL,TRAVIS,-106.413377,31.869485,5414 HONDO PASS DR,EL PASO,79924,227910101,01-01-07,852,77,651,101,5,18,,,,643,227,9,76.4,11.9,0.6,2.1,,,,75.5,26.6
DEL VALLE ISD,SMITH EL,TRAVIS,-97.491002,25.911323,901 FILMORE ST,BROWNSVILLE,78520,227910106,01-01-07,576,39,506,23,1,7,,,,498,235,6.8,87.8,4,0.2,1.2,,,,86.5,40.8
DEL VALLE ISD,HILLCREST EL,TRAVIS,-96.999237,33.039415,400 HIGH SCHOOL DR,LEWISVILLE,75057,227910107,01-01-07,676,64,563,43,1,5,,,,614,318,9.5,83.3,6.4,0.1,0.7,,,,90.8,47
DEL VALLE ISD,BATY EL,TRAVIS,-97.445044,25.903809000000141,1025 MORNINGSIDE RD,BROWNSVILLE,78521,227910108,01-01-07,745,102,603,30,1,9,,,,691,285,13.7,80.9,4,0.1,1.2,,,,92.8,38.3
DEL VALLE ISD,HORNSBY-DUNLAP EL,TRAVIS,-95.118819,29.533895,300 PENNSYLVANIA,WEBSTER,77598,227910109,01-01-07,905,221,602,71,3,8,,,,669,280,24.4,66.5,7.8,0.3,0.9,,,,73.9,30.9
DEL VALLE ISD,DEL VALLE ELEMENTARY SCHOOL,TRAVIS,-97.65660537399971,30.563252799000555,4400 COLLEGE PARK DR,ROUND ROCK,78665,227910110,01-01-07,675,66,502,94,2,11,,,,528,194,9.8,74.4,13.9,0.3,1.6,,,,78.2,28.7
DEL VALLE ISD,CREEDMOOR EL,TRAVIS,-95.429549,29.205884,5200 AIRLINE DR,ANGLETON,77515,227910111,01-01-07,749,27,613,108,0,1,,,,598,287,3.6,81.8,14.4,0,0.1,,,,79.8,38.3
LAKE TRAVIS ISD,LAKE TRAVIS H S,TRAVIS,-97.957404999999881,26.145825,2607 CAMINO REAL VIEJO,MERCEDES,78570,227913001,01-01-07,1668,21,212,1388,9,38,,,,156,53,1.3,12.7,83.2,0.5,2.3,,,,9.4,3.2
LAKE TRAVIS ISD,TRAVIS CO J J A E P,TRAVIS,-106.246554,31.601833000000102,13890 ALAMEDA AVE,CLINT,79836,227913002,01-01-07,2,0,0,2,0,0,,,,0,0,0,0,100,0,0,,,,0,0
LAKE TRAVIS ISD,LAKE TRAVIS MIDDLE,TRAVIS,-98.556717,29.439149,3306 RUIZ ST,SAN ANTONIO,78228,227913041,01-01-07,786,17,69,673,3,24,,,,47,6,2.2,8.8,85.6,0.4,3.1,,,,6,0.8
LAKE TRAVIS ISD,HUDSON BEND MIDDLE,TRAVIS,-95.593987999999868,30.045374000000105,11600 WOODLAND SHORE DR,TOMBALL,77375,227913042,01-01-07,527,11,121,378,2,15,,,,120,40,2.1,23,71.7,0.4,2.8,,,,22.8,7.6
LAKE TRAVIS ISD,LAKE TRAVIS EL,TRAVIS,-98.111296,29.656192,2620 KLEIN WAY,NEW BRAUNFELS,78130,227913101,01-01-07,700,16,246,421,4,13,,,,251,144,2.3,35.1,60.1,0.6,1.9,,,,35.9,20.6
LAKE TRAVIS ISD,LAKEWAY EL,TRAVIS,-96.877147,33.142443,1649 HIGH SHOALS DR,FRISCO,75034,227913102,01-01-07,721,7,53,641,3,17,,,,17,5,1,7.4,88.9,0.4,2.4,,,,2.4,0.7
LAKE TRAVIS ISD,BEE CAVE ELEMENTARY,TRAVIS,-96.26493,31.631916,420 LOOP 255,TEAGUE,75860,227913103,01-01-07,563,3,51,486,2,21,,,,60,6,0.5,9.1,86.3,0.4,3.7,,,,10.7,1.1
LAKE TRAVIS ISD,LAKE POINTE ELEMENTARY,TRAVIS,-101.849676,33.626263,1302 ADRIAN ST,LUBBOCK,79403,227913104,01-01-07,596,6,50,506,2,32,,,,6,5,1,8.4,84.9,0.3,5.4,,,,1,0.8
GEORGETOWN ISD,GEORGETOWN H S,WILLIAMSON,-98.272896,30.593839,1511 PONY CIR,MARBLE FALLS,78654,246904001,01-01-07,1989,80,489,1401,7,12,,,,521,56,4,24.6,70.4,0.4,0.6,,,,26.2,2.8
GEORGETOWN ISD,CHIP RICHARTE H S,WILLIAMSON,-96.849976,33.032963,4207 PLANO PKWY,CARROLLTON,75010,246904002,01-01-07,78,5,27,46,0,0,,,,38,0,6.4,34.6,59,0,0,,,,48.7,0
GEORGETOWN ISD,GEORGETOWN ALTER PROG,WILLIAMSON,-94.051237,33.435407,905 MARTINE ST,TEXARKANA,75503,246904003,01-01-07,13,5,3,5,0,0,,,,5,0,38.5,23.1,38.5,0,0,,,,38.5,0
GEORGETOWN ISD,GEORGETOWN 9TH GRADE,WILLIAMSON,-97.690164,33.148189,338 SCHOOLHOUSE RD,PARADISE,76073,246904004,01-01-07,762,30,220,499,9,4,,,,212,24,3.9,28.9,65.5,1.2,0.5,,,,27.8,3.1
GEORGETOWN ISD,DOUGLAS BENOLD MIDDLE,WILLIAMSON,-95.349113,29.85847,10130 ALDINE WESTFIELD RD,HOUSTON,77093,246904040,01-01-07,706,26,159,513,4,4,,,,182,21,3.7,22.5,72.7,0.6,0.6,,,,25.8,3
GEORGETOWN ISD,JAMES TIPPIT MIDDLE,WILLIAMSON,-95.175719999999899,29.776426,1035 FRANKIE,HOUSTON,77015,246904041,01-01-07,776,43,297,420,8,8,,,,346,49,5.5,38.3,54.1,1,1,,,,44.6,6.3
GEORGETOWN ISD,CHARLES A FORBES MIDDLE SCHOOL,WILLIAMSON,-96.799639,33.243632,301 EAGLE DR,PROSPER,75078,246904042,01-01-07,649,18,169,451,2,9,,,,206,17,2.8,26,69.5,0.3,1.4,,,,31.7,2.6
GEORGETOWN ISD,ANNIE PURL EL,WILLIAMSON,-98.342526,26.214631000000104,803 S LOS EBANOS BLVD,ALTON,78573,246904101,01-01-07,736,28,434,258,8,8,,,,482,250,3.8,59,35.1,1.1,1.1,,,,65.5,34
GEORGETOWN ISD,CARVER EL,WILLIAMSON,-99.896416,32.753485,1509 S COMMERCIAL,ANSON,79501,246904102,01-01-07,431,20,197,205,5,4,,,,254,97,4.6,45.7,47.6,1.2,0.9,,,,58.9,22.5
GEORGETOWN ISD,FROST EL,WILLIAMSON,-97.919171,27.519423,803 SANTA ROSA,KINGSVILLE,78363,246904103,01-01-07,501,24,182,287,3,5,,,,210,101,4.8,36.3,57.3,0.6,1,,,,41.9,20.2
GEORGETOWN ISD,PAT COOPER EL,WILLIAMSON,-94.34304,32.160734,320 N DANIEL ST,CARTHAGE,75633,246904104,01-01-07,528,31,117,378,0,2,,,,189,25,5.9,22.2,71.6,0,0.4,,,,35.8,4.7
GEORGETOWN ISD,DELL PICKETT EL,WILLIAMSON,-98.590302,29.434888,6515 W COMMERCE ST,SAN ANTONIO,78227,246904105,01-01-07,425,22,145,248,4,6,,,,182,48,5.2,34.1,58.4,0.9,1.4,,,,42.8,11.3
GEORGETOWN ISD,RAYE MCCOY EL,WILLIAMSON,-95.652137,29.937995000000107,22602 HEMPSTEAD HWY,CYPRESS,77429,246904106,01-01-07,456,17,136,296,1,6,,,,172,60,3.7,29.8,64.9,0.2,1.3,,,,37.7,13.2
GEORGETOWN ISD,THE VILLAGE EL,WILLIAMSON,-97.085766,32.943279,301 PONY PKWY,GRAPEVINE,76051,246904107,01-01-07,395,11,73,303,3,5,,,,98,11,2.8,18.5,76.7,0.8,1.3,,,,24.8,2.8
GEORGETOWN ISD,WILLIAMS ELEMENTARY,WILLIAMSON,-95.074699,31.657596,248 CR 2429,ALTO,75925,246904108,01-01-07,518,19,272,215,4,8,,,,291,112,3.7,52.5,41.5,0.8,1.5,,,,56.2,21.6
GEORGETOWN ISD,JO ANN FORD EL,WILLIAMSON,-95.634828,29.690714,8150 SUGARLAND HOWELL,HOUSTON,77083,246904109,01-01-07,533,6,73,445,4,5,,,,62,9,1.1,13.7,83.5,0.8,0.9,,,,11.6,1.7
GEORGETOWN ISD,WILLIAMSON CO J J A E P,WILLIAMSON,-99.63202,33.450506,911 W D ST,MUNDAY,76371,246904197,01-01-07,8,2,1,5,0,0,,,,5,0,25,12.5,62.5,0,0,,,,62.5,0
GEORGETOWN ISD,WM S LOTT JUVENILE CTR,WILLIAMSON,-94.183756,31.803085,624 MALONE DR,CENTER,75935,246904199,01-01-07,4,1,1,2,0,0,,,,1,0,25,25,50,0,0,,,,25,0
HUTTO ISD,HUTTO H S,WILLIAMSON,-95.519851,29.901285,8300 LITTLE RIVER RD,HOUSTON,77064,246906001,01-01-07,927,132,269,513,0,13,,,,239,15,14.2,29,55.3,0,1.4,,,,25.8,1.6
HUTTO ISD,WILLIAMSON COUNTY ACADEMY,WILLIAMSON,-97.741303,32.766298,102 MEADOW VIEW RD,WEATHERFORD,76087,246906002,01-01-07,1,0,0,1,0,0,,,,0,0,0,0,100,0,0,,,,0,0
HUTTO ISD,LOTT DETENTION CENTER,WILLIAMSON,-94.050474,31.966162,10901 HWY 84 E,JOAQUIN,75954,246906003,01-01-07,2,0,2,0,0,0,,,,0,0,0,100,0,0,0,,,,0,0
HUTTO ISD,HUTTO MIDDLE SCHOOL,WILLIAMSON,-95.047355,29.880525,815 F M 1942,CROSBY,77532,246906041,01-01-07,797,124,225,430,1,17,,,,293,37,15.6,28.2,54,0.1,2.1,,,,36.8,4.6
HUTTO ISD,HUTTO ELEMENTARY SCHOOL,WILLIAMSON,-97.760665,29.281396,335 ALTERNATIVE LN,FLORESVILLE,78114,246906101,01-01-07,632,43,173,404,1,11,,,,163,39,6.8,27.4,63.9,0.2,1.7,,,,25.8,6.2
HUTTO ISD,COTTONWOOD CREEK EL,WILLIAMSON,-97.092526,32.627327,1201 MANSFIELD WEBB RD,ARLINGTON,76002,246906103,01-01-07,648,68,289,286,2,3,,,,340,117,10.5,44.6,44.1,0.3,0.5,,,,52.5,18.1
HUTTO ISD,NADINE JOHNSON ELEMENTARY,WILLIAMSON,-95.535239,29.80702500000011,9810 NEUENS,HOUSTON,77080,246906121,01-01-07,692,92,259,331,2,8,,,,270,76,13.3,37.4,47.8,0.3,1.2,,,,39,11
ROUND ROCK ISD,ROUND ROCK H S,WILLIAMSON,-97.324578,32.52795,619 EVELYN LN,BURLESON,76028,246909001,01-01-07,2401,236,578,1462,13,112,,,,559,108,9.8,24.1,60.9,0.5,4.7,,,,23.3,4.5
ROUND ROCK ISD,ROUND ROCK OPPORT CTR DAEP,WILLIAMSON,-96.417148,32.899564000000112,3130 FONTANNA BLVD,ROCKWALL,75032,246909002,01-01-07,115,14,47,49,1,4,,,,57,4,12.2,40.9,42.6,0.9,3.5,,,,49.6,3.5
ROUND ROCK ISD,WESTWOOD H S,WILLIAMSON,-94.980093708999675,29.378012440000536,100 LAKE RD,LA MARQUE,77568,246909003,01-01-07,2551,101,242,1734,6,468,,,,201,52,4,9.5,68,0.2,18.3,,,,7.9,2
ROUND ROCK ISD,MCNEIL H S,WILLIAMSON,-95.632644,29.760215,13800 WESTERLOCH DR,HOUSTON,77077,246909004,01-01-07,2748,266,416,1778,13,275,,,,341,48,9.7,15.1,64.7,0.5,10,,,,12.4,1.7
ROUND ROCK ISD,STONY POINT HIGH SCHOOL,WILLIAMSON,-95.40273,29.844667000000122,5320 YALE,HOUSTON,77091,246909007,01-01-07,2238,414,671,1072,7,74,,,,679,74,18.5,30,47.9,0.3,3.3,,,,30.3,3.3
ROUND ROCK ISD,SUCCESS PROGRAM WEST,WILLIAMSON,-98.286118,30.581676000000119,901 AVE U,MARBLE FALLS,78654,246909011,01-01-07,29,1,10,18,0,0,,,,9,1,3.4,34.5,62.1,0,0,,,,31,3.4
ROUND ROCK ISD,WILLIAMSON CO J J A E P,WILLIAMSON,-95.142471,31.778465,1345 S MAIN ST,RUSK,75785,246909012,01-01-07,20,3,6,10,1,0,,,,8,2,15,30,50,5,0,,,,40,10
ROUND ROCK ISD,WM S LOTT JUVENILE CTR,WILLIAMSON,-98.203989,26.198352,9701 S JACKSON RD,PHARR,78577,246909016,01-01-07,5,1,2,0,0,2,,,,2,0,20,40,0,0,40,,,,40,0
ROUND ROCK ISD,STONY POINT NINTH GRADE CAMPUS,WILLIAMSON,-99.465978,27.604066,2810 HAVANA DR,LAREDO,78045,246909017,01-01-07,841,150,281,374,3,33,,,,297,26,17.8,33.4,44.5,0.4,3.9,,,,35.3,3.1
ROUND ROCK ISD,SUCCESS PROGRAM EAST,WILLIAMSON,-95.639517,32.097868,13155 HWY 175 E,LARUE,75770,246909021,01-01-07,42,4,20,18,0,0,,,,10,0,9.5,47.6,42.9,0,0,,,,23.8,0
ROUND ROCK ISD,C D FULKES MIDDLE,WILLIAMSON,-95.233396,29.579001,11955 BLACKHAWK BLVD,HOUSTON,77089,246909041,01-01-07,718,130,364,210,3,11,,,,439,100,18.1,50.7,29.2,0.4,1.5,,,,61.1,13.9
ROUND ROCK ISD,NOEL GRISHAM MIDDLE,WILLIAMSON,-96.780388,32.803644,1710 N CARROLL,DALLAS,75204,246909042,01-01-07,745,47,131,482,1,84,,,,160,33,6.3,17.6,64.7,0.1,11.3,,,,21.5,4.4
ROUND ROCK ISD,CHISHOLM TRAIL MIDDLE,WILLIAMSON,-97.710968,26.196206,1406 W JEFFERSON ST,HARLINGEN,78550,246909043,01-01-07,1032,93,254,611,5,69,,,,269,52,9,24.6,59.2,0.5,6.7,,,,26.1,5
ROUND ROCK ISD,CANYON VISTA MIDDLE,WILLIAMSON,-96.615995,28.819629,187 FIFTH ST,VANDERBILT,77991,246909044,01-01-07,1044,25,59,664,4,292,,,,57,33,2.4,5.7,63.6,0.4,28,,,,5.5,3.2
ROUND ROCK ISD,DEERPARK MIDDLE,WILLIAMSON,-96.82376,33.157149,6927 STADIUM LN,FRISCO,75034,246909045,01-01-07,1051,130,211,594,7,109,,,,302,32,12.4,20.1,56.5,0.7,10.4,,,,28.7,3
ROUND ROCK ISD,HOPEWELL MIDDLE,WILLIAMSON,-95.34127,29.800815,2819 BAY ST,HOUSTON,77026,246909046,01-01-07,1485,255,555,618,2,55,,,,565,77,17.2,37.4,41.6,0.1,3.7,,,,38,5.2
ROUND ROCK ISD,CEDAR VALLEY MIDDLE,WILLIAMSON,-98.25679,26.190518,2901 COLBATH AVE,MCALLEN,78503,246909047,01-01-07,1392,87,224,951,7,123,,,,180,28,6.3,16.1,68.3,0.5,8.8,,,,12.9,2
ROUND ROCK ISD,RIDGEVIEW MIDDLE SCHOOL,WILLIAMSON,-97.482024,25.964025000000113,3700 HERITAGE TRL,BROWNSVILLE,78521,246909051,01-01-07,1226,187,263,695,7,74,,,,247,27,15.3,21.5,56.7,0.6,6,,,,20.1,2.2
ROUND ROCK ISD,CLAUDE BERKMAN EL,WILLIAMSON,-95.746498,29.764514,21603 PARK TREE LN,KATY,77450,246909101,01-01-07,587,33,475,71,1,7,,,,493,341,5.6,80.9,12.1,0.2,1.2,,,,84,58.1
ROUND ROCK ISD,ELEMENTARY DAEP,WILLIAMSON,-95.526083,29.678634,8432 BISSONNET ST,HOUSTON,77074,246909102,01-01-07,10,6,1,3,0,0,,,,7,0,60,10,30,0,0,,,,70,0
ROUND ROCK ISD,SPICEWOOD EL,WILLIAMSON,-101.90064,30.909166,100 S FARR ST,IRAAN,79744,246909105,01-01-07,691,21,59,444,2,165,,,,41,26,3,8.5,64.3,0.3,23.9,,,,5.9,3.8
ROUND ROCK ISD,XENIA VOIGT EL,WILLIAMSON,-95.703086,29.908343,18425 W RD,CYPRESS,77433,246909106,01-01-07,715,106,390,201,4,14,,,,420,142,14.8,54.5,28.1,0.6,2,,,,58.7,19.9
ROUND ROCK ISD,DEEP WOOD EL,WILLIAMSON,-96.901047,32.715735000000102,2727 KNOXVILLE ST,DALLAS,75211,246909107,01-01-07,419,10,97,293,7,12,,,,79,5,2.4,23.2,69.9,1.7,2.9,,,,18.9,1.2
ROUND ROCK ISD,FOREST NORTH EL,WILLIAMSON,-97.410286,27.775834,1414 18TH ST,CORPUS CHRISTI,78404,246909108,01-01-07,700,48,126,410,3,113,,,,107,53,6.9,18,58.6,0.4,16.1,,,,15.3,7.6
ROUND ROCK ISD,ANDERSON MILL EL,WILLIAMSON,-96.954788,33.396633,501 E CARROLL ST,PILOT POINT,76258,246909109,01-01-07,373,51,130,161,0,31,,,,203,61,13.7,34.9,43.2,0,8.3,,,,54.4,16.4
ROUND ROCK ISD,KATHY CARAWAY EL,WILLIAMSON,-97.819896,30.28125,1203 LOOP 360 S,AUSTIN,78746,246909110,01-01-07,472,28,51,316,3,74,,,,35,27,5.9,10.8,66.9,0.6,15.7,,,,7.4,5.7
ROUND ROCK ISD,VIC ROBERTSON EL,WILLIAMSON,-101.913272,33.583087,4702 15TH ST,LUBBOCK,79416,246909111,01-01-07,612,43,453,96,3,17,,,,464,290,7,74,15.7,0.5,2.8,,,,75.8,47.4
ROUND ROCK ISD,PURPLE SAGE EL,WILLIAMSON,-95.167284,29.687619,3102 SAN AUGUSTINE,PASADENA,77503,246909113,01-01-07,408,8,166,209,0,25,,,,158,121,2,40.7,51.2,0,6.1,,,,38.7,29.7
ROUND ROCK ISD,BRUSHY CREEK EL,WILLIAMSON,-94.805518,29.280496,3906 AVE T,GALVESTON,77550,246909114,01-01-07,789,57,136,495,5,96,,,,138,66,7.2,17.2,62.7,0.6,12.2,,,,17.5,8.4
ROUND ROCK ISD,WELLS BRANCH EL,WILLIAMSON,-96.883591,33.147253,8200 OTIS DR,FRISCO,75034,246909115,01-01-07,847,188,241,261,1,156,,,,336,188,22.2,28.5,30.8,0.1,18.4,,,,39.7,22.2
ROUND ROCK ISD,LAUREL MOUNTAIN EL,WILLIAMSON,-98.332146,26.230214,810 W GRIFFIN PKWY,MISSION,78572,246909116,01-01-07,772,10,39,376,4,343,,,,37,95,1.3,5.1,48.7,0.5,44.4,,,,4.8,12.3
ROUND ROCK ISD,POND SPRINGS EL,WILLIAMSON,-98.240921,27.753029,609 W LABBE ST,SAN DIEGO,78384,246909117,01-01-07,731,57,126,401,2,145,,,,139,81,7.8,17.2,54.9,0.3,19.8,,,,19,11.1
ROUND ROCK ISD,BLUEBONNET EL,WILLIAMSON,-96.639174,32.817844,5299 GUS THOMASSON RD,MESQUTE,75150,246909118,01-01-07,566,65,374,117,2,8,,,,416,216,11.5,66.1,20.7,0.4,1.4,,,,73.5,38.2
ROUND ROCK ISD,DOUBLE FILE TRAIL EL,WILLIAMSON,-96.63512,33.210065,2100 WHITE AVE,MCKINNEY,75069,246909119,01-01-07,913,186,294,386,5,42,,,,383,85,20.4,32.2,42.3,0.5,4.6,,,,41.9,9.3
ROUND ROCK ISD,LIVE OAK EL,WILLIAMSON,-96.544098,33.736796,4200 N STATE HWY 91,DENISON,75020,246909120,01-01-07,461,61,124,248,0,28,,,,161,25,13.2,26.9,53.8,0,6.1,,,,34.9,5.4
ROUND ROCK ISD,GATTIS EL,WILLIAMSON,-98.848512,26.399286,2700 W EISENHOWER ST,RIO GRANDE CITY,78582,246909121,01-01-07,832,172,239,368,4,49,,,,311,64,20.7,28.7,44.2,0.5,5.9,,,,37.4,7.7
ROUND ROCK ISD,OLD TOWN EL,WILLIAMSON,-100.865166,32.40227700000014,1435 ELM ST,COLORADO CITY,79512,246909122,01-01-07,841,39,215,546,3,38,,,,207,29,4.6,25.6,64.9,0.4,4.5,,,,24.6,3.4
ROUND ROCK ISD,FERN BLUFF EL,WILLIAMSON,-95.480835,29.982617,3840 BRIARCHASE DR,HOUSTON,77014,246909123,01-01-07,898,38,104,581,6,169,,,,48,35,4.2,11.6,64.7,0.7,18.8,,,,5.3,3.9
ROUND ROCK ISD,JOLLYVILLE EL,WILLIAMSON,-96.499633,32.247271,1400 SW MCKINNEY ST,RICE,75155,246909124,01-01-07,537,67,112,270,6,82,,,,150,106,12.5,20.9,50.3,1.1,15.3,,,,27.9,19.7
ROUND ROCK ISD,CANYON CREEK EL,WILLIAMSON,-94.999282,30.490938,1401 S BYRD AVE,SHEPHERD,77371,246909125,01-01-07,570,6,36,374,2,152,,,,7,16,1.1,6.3,65.6,0.4,26.7,,,,1.2,2.8
ROUND ROCK ISD,FOREST CREEK EL,WILLIAMSON,-97.792259,27.808202,5519 HWY 44,BANQUETE,78339,246909126,01-01-07,1068,137,185,674,1,71,,,,158,44,12.8,17.3,63.1,0.1,6.6,,,,14.8,4.1
ROUND ROCK ISD,CALDWELL HEIGHTS EL,WILLIAMSON,-98.421861,29.219773,3845 S LOOP 1604 E,SAN ANTONIO,78264,246909127,01-01-07,575,54,198,293,3,27,,,,171,58,9.4,34.4,51,0.5,4.7,,,,29.7,10.1
ROUND ROCK ISD,GREAT OAKS EL,WILLIAMSON,-95.180983,29.637369,1838-A E SAM HOUSTON PKWY S,PASADENA,77503,246909128,01-01-07,995,35,88,737,0,135,,,,29,49,3.5,8.8,74.1,0,13.6,,,,2.9,4.9
ROUND ROCK ISD,BLACKLAND PRAIRIE EL,WILLIAMSON,-98.231736,26.332928,14001 N ROOTH RD,EDINBURG,78541,246909130,01-01-07,1054,129,219,615,1,90,,,,165,80,12.2,20.8,58.3,0.1,8.5,,,,15.7,7.6
ROUND ROCK ISD,CACTUS RANCH EL,WILLIAMSON,-106.213974,31.709059,13777 PASEO DEL ESTE,EL PASO,79928,246909132,01-01-07,1142,73,212,782,4,71,,,,80,35,6.4,18.6,68.5,0.4,6.2,,,,7,3.1
ROUND ROCK ISD,UNION HILL ELEMENTARY,WILLIAMSON,-96.376564,32.065584000000108,5475 S HWY 287,CORSICANA,75109,246909137,01-01-07,831,167,318,319,6,21,,,,357,55,20.1,38.3,38.4,0.7,2.5,,,,43,6.6
LEANDER ISD,LEANDER H S,WILLIAMSON,-98.880769,29.356228,1000 MADRID,CASTROVILLE,78009,246913001,01-01-07,2082,169,536,1320,13,44,,,,569,49,8.1,25.7,63.4,0.6,2.1,,,,27.3,2.4
LEANDER ISD,CEDAR PARK H S,WILLIAMSON,-95.985885,30.491455,458 FM 149 W,ANDERSON,77830,246913002,01-01-07,2118,101,251,1669,13,84,,,,183,19,4.8,11.9,78.8,0.6,4,,,,8.6,0.9
LEANDER ISD,VISTA RIDGE HIGH SCHOOL,WILLIAMSON,-95.359636,30.043627000000118,4615 REYNALDO DR,SPRING,77373,246913003,01-01-07,2045,134,377,1471,16,47,,,,321,40,6.6,18.4,71.9,0.8,2.3,,,,15.7,2
LEANDER ISD,WILLIAMSON CO ACADEMY,WILLIAMSON,-94.590903,30.027195,201 S CHISM,DEVERS,77538,246913010,01-01-07,14,2,7,4,0,1,,,,4,0,14.3,50,28.6,0,7.1,,,,28.6,0
LEANDER ISD,NEW HOPE HIGH SCHOOL,WILLIAMSON,-96.762051,32.873075,7000 HOLLY HILL DR,DALLAS,75231,246913011,01-01-07,48,1,5,39,2,1,,,,14,0,2.1,10.4,81.3,4.2,2.1,,,,29.2,0
LEANDER ISD,LOTT DETENTION CENTER,WILLIAMSON,-98.472382,29.241308,1300 DEL LAGORD,SAN ANTONIO,78221,246913012,01-01-07,5,0,3,2,0,0,,,,2,0,0,60,40,0,0,,,,40,0
LEANDER ISD,CEDAR PARK MIDDLE,WILLIAMSON,-95.411491,29.919738,10650 N FWY,HOUSTON,77037,246913041,01-01-07,1225,63,181,915,7,59,,,,143,22,5.1,14.8,74.7,0.6,4.8,,,,11.7,1.8
LEANDER ISD,LEANDER MIDDLE,WILLIAMSON,-97.013824,32.717913,2030 PROCTOR DR,GRAND PRAIRIE,75051,246913042,01-01-07,638,49,186,391,2,10,,,,264,40,7.7,29.2,61.3,0.3,1.6,,,,41.4,6.3
LEANDER ISD,RUNNING BRUSHY MIDDLE SCHOOL,WILLIAMSON,-96.465700999999854,32.734508000000112,1011 FM 741,FORNEY,75126,246913043,01-01-07,1074,75,274,690,5,30,,,,307,28,7,25.5,64.2,0.5,2.8,,,,28.6,2.6
LEANDER ISD,ARTIE L HENRY MIDDLE SCHOOL,WILLIAMSON,-97.068085,29.720466,4110 FM 609,FLATONIA,78941,246913044,01-01-07,978,52,189,696,2,39,,,,146,7,5.3,19.3,71.2,0.2,4,,,,14.9,0.7
LEANDER ISD,CANYON RIDGE MIDDLE SCHOOL,WILLIAMSON,-95.464714,29.964747,3000 SPEARS RD,HOUSTON,77067,246913045,01-01-07,782,19,79,638,3,43,,,,49,11,2.4,10.1,81.6,0.4,5.5,,,,6.3,1.4
LEANDER ISD,KNOX WILEY MIDDLE SCHOOL,WILLIAMSON,-95.908504,30.051221,19010 STOKES RD,WALLER,77484,246913046,01-01-07,606,40,108,441,0,17,,,,139,14,6.6,17.8,72.8,0,2.8,,,,22.9,2.3
LEANDER ISD,WHITESTONE EL,WILLIAMSON,-94.939513,32.533835,200 E BROADWAY,GLADEWATER,75647,246913101,01-01-07,561,23,165,359,4,10,,,,202,37,4.1,29.4,64,0.7,1.8,,,,36,6.6
LEANDER ISD,ADA MAE FAUBION EL,WILLIAMSON,-96.671844,29.493178000000121,5526 FM 2437,SHERIDAN,77475,246913102,01-01-07,646,35,102,463,5,41,,,,124,26,5.4,15.8,71.7,0.8,6.3,,,,19.2,4
LEANDER ISD,BLOCK HOUSE CREEK EL,WILLIAMSON,-96.876507643999631,31.309119571000519,1400 CAPPS ST,MARLIN,76661,246913103,01-01-07,806,41,128,608,6,23,,,,106,18,5.1,15.9,75.4,0.7,2.9,,,,13.2,2.2
LEANDER ISD,CYPRESS EL,WILLIAMSON,-95.720314,29.897975,8111 FRY RD,CYPRESS,77433,246913104,01-01-07,667,39,117,470,7,34,,,,109,38,5.8,17.5,70.5,1,5.1,,,,16.3,5.7
LEANDER ISD,C C MASON EL,WILLIAMSON,-105.848929,31.2949160000001,100 SCHOOL DR,FT HANCOCK,79839,246913105,01-01-07,653,40,104,489,4,16,,,,195,33,6.1,15.9,74.9,0.6,2.5,,,,29.9,5.1
LEANDER ISD,LOIS F GIDDENS EL,WILLIAMSON,-94.992345555999634,29.370500694000373,1217 VAUTHIER,LA MARQUE,77568,246913106,01-01-07,654,26,183,437,1,7,,,,175,34,4,28,66.8,0.2,1.1,,,,26.8,5.2
LEANDER ISD,STEINER RANCH EL,WILLIAMSON,-106.349886,31.703323,9009 ALAMEDA AVE,EL PASO,79907,246913107,01-01-07,932,9,97,747,8,71,,,,31,37,1,10.4,80.2,0.9,7.6,,,,3.3,4
LEANDER ISD,PAULINE NAUMANN EL,WILLIAMSON,-101.305879,32.302667,600 N MAIN,COAHOMA,79511,246913108,01-01-07,875,47,110,657,5,56,,,,141,46,5.4,12.6,75.1,0.6,6.4,,,,16.1,5.3
LEANDER ISD,BAGDAD ELEMENTARY,WILLIAMSON,-94.288085,33.470915,401 AVE A,HOOKS,75561,246913109,01-01-07,677,56,298,303,9,11,,,,387,203,8.3,44,44.8,1.3,1.6,,,,57.2,30
LEANDER ISD,CHARLOTTE COX ELEMENTARY,WILLIAMSON,-97.454245,27.751107,1526 CLIFF MAUS DR,CORPUS CHRISTI,78416,246913110,01-01-07,819,38,137,580,3,61,,,,105,56,4.6,16.7,70.8,0.4,7.4,,,,12.8,6.8
LEANDER ISD,LAURA WELCH BUSH ELEMENTARY,WILLIAMSON,-98.285371,26.170023000000128,4205 LOS INDIOS PKWY,MISSION,78572,246913111,01-01-07,1134,24,98,929,7,76,,,,16,28,2.1,8.6,81.9,0.6,6.7,,,,1.4,2.5
LEANDER ISD,PATRICIA KNOWLES ELEMENTARY,WILLIAMSON,-97.103308,32.62731,601 E HARRIS RD,ARLINGTON,76002,246913112,01-01-07,718,47,330,321,2,18,,,,334,219,6.5,46,44.7,0.3,2.5,,,,46.5,30.5
LEANDER ISD,DEER CREEK ELEMENTARY,WILLIAMSON,-97.92366,26.296485,810 N COTTONWOOD,LA VILLA,78562,246913113,01-01-07,973,22,104,787,2,58,,,,21,28,2.3,10.7,80.9,0.2,6,,,,2.2,2.9
LEANDER ISD,PLEASANT HILL ELEMENTARY,WILLIAMSON,-98.533428,29.458317,2123 W HUISACHE AVE,SAN ANTONIO,78201,246913114,01-01-07,968,53,189,706,5,15,,,,183,34,5.5,19.5,72.9,0.5,1.5,,,,18.9,3.5
LEANDER ISD,RUTLEDGE ELEMENTARY,WILLIAMSON,-94.996031,29.670181,514 BAYRIDGE RD,LA PORTE,77571,246913115,01-01-07,646,37,106,440,1,62,,,,106,61,5.7,16.4,68.1,0.2,9.6,,,,16.4,9.4
LEANDER ISD,JIM PLAIN ELEMENTARY,WILLIAMSON,-100.452525,31.51068,255 LAKE VIEW HEROES DR,SAN ANGELO,76903,246913116,01-01-07,384,31,98,246,2,7,,,,136,17,8.1,25.5,64.1,0.5,1.8,,,,35.4,4.4
LEANDER ISD,WILLIAM J WINKLEY ELEMENTARY,WILLIAMSON,-96.770502,32.771406,2801 PARK ROW AVE,DALLAS,75215,246913117,01-01-07,502,56,103,333,3,7,,,,145,16,11.2,20.5,66.3,0.6,1.4,,,,28.9,3.2
BASTROP ISD,BASTROP H S,BASTROP,-98.546585,29.329639,1520 GILLETTE BLVD,SAN ANTONIO,78224,11901001,01-01-08,2341,252,819,1234,17,19,,,,1092,109,10.8,35,52.7,0.7,0.8,,,,46.6,4.7
BASTROP ISD,GENESIS H S,BASTROP,-95.597053,29.709192,4410 COOK RD,HOUSTON,77072,11901022,01-01-08,63,3,25,35,0,0,,,,25,2,4.8,39.7,55.6,0,0,,,,39.7,3.2
BASTROP ISD,GATEWAY SCH,BASTROP,-106.340577999999894,31.717744,8300 FORREST HAVEN CT,EL PASO,79907,11901033,01-01-08,34,10,16,8,0,0,,,,25,2,29.4,47.1,23.5,0,0,,,,73.5,5.9
BASTROP ISD,BASTROP MIDDLE,BASTROP,-106.458374,31.766621000000107,801 S SAN MARCIAL ST,EL PASO,79905,11901041,01-01-08,625,86,162,369,4,4,,,,307,20,13.8,25.9,59,0.6,0.6,,,,49.1,3.2
BASTROP ISD,EMILE ELEMENTARY,BASTROP,-98.617502,29.451797,6535 CULEBRA RD,SAN ANTONIO,78238,11901101,01-01-08,484,71,104,303,4,2,,,,203,8,14.7,21.5,62.6,0.8,0.4,,,,41.9,1.7
BASTROP ISD,MINA ELEMENTARY,BASTROP,-98.510491,31.676246,1378 SH 16 N,PRIDDY,76870,11901102,01-01-08,588,103,177,299,5,4,,,,338,72,17.5,30.1,50.9,0.9,0.7,,,,57.5,12.2
BASTROP ISD,CEDAR CREEK ELEMENTARY,BASTROP,-106.551702,31.862398,6101 HIGH RIDGE,EL PASO,79912,11901103,01-01-08,697,42,427,222,0,6,,,,483,246,6,61.3,31.9,0,0.9,,,,69.3,35.3
BASTROP ISD,BASTROP INTERMEDIATE,BASTROP,-97.702599,31.091294,1910 HERNDON DR,KILLEEN,76543,11901104,01-01-08,614,78,177,351,5,3,,,,304,30,12.7,28.8,57.2,0.8,0.5,,,,49.5,4.9
BASTROP ISD,CEDAR CREEK MIDDLE SCHOOL,BASTROP,-95.791343,29.360078000000112,16430 HWY 36 S,NEEDVILLE,77461,11901106,01-01-08,609,40,324,239,2,4,,,,346,60,6.6,53.2,39.2,0.3,0.7,,,,56.8,9.9
BASTROP ISD,RED ROCK ELEMENTARY,BASTROP,-95.675941,29.883661000000124,7315 HUDSON OAKS DR,HOUSTON,77095,11901107,01-01-08,565,22,296,241,5,1,,,,374,163,3.9,52.4,42.7,0.9,0.2,,,,66.2,28.8
BASTROP ISD,CEDAR CREEK INTERMEDIATE SCHOOL,BASTROP,-99.398348,32.398177,400 W 7TH ST,BAIRD,79504,11901108,01-01-08,609,33,339,232,0,5,,,,397,100,5.4,55.7,38.1,0,0.8,,,,65.2,16.4
BASTROP ISD,BLUEBONNET ELEMENTARY SCHOOL,BASTROP,-95.277083,29.552376000000102,3001 OLD ALVIN RD,PEARLAND,77581,11901109,01-01-08,601,42,340,211,5,3,,,,388,176,7,56.6,35.1,0.8,0.5,,,,64.6,29.3
BASTROP ISD,LOST PINES ELEMENTARY SCHOOL,BASTROP,-94.361686,32.776514,#1 BULLDOG DR,JEFFERSON,75657,11901110,01-01-08,691,33,311,347,0,0,,,,497,168,4.8,45,50.2,0,0,,,,71.9,24.3
ELGIN ISD,ELGIN H S,BASTROP,-99.130646,31.717045,400 N 3RD ST,BANGS,76823,11902001,01-01-08,1030,167,444,410,4,5,,,,523,66,16.2,43.1,39.8,0.4,0.5,,,,50.8,6.4
ELGIN ISD,PHOENIX HIGH SCHOOL,BASTROP,-96.615966,32.992542000000121,5651 COVENTRY DR,RICHARDSON,75082,11902004,01-01-08,31,5,17,9,0,0,,,,11,0,16.1,54.8,29,0,0,,,,35.5,0
ELGIN ISD,ELGIN MIDDLE SCHOOL,BASTROP,-95.743797,29.71342,5905 S MASON RD,KATY,77450,11902041,01-01-08,755,113,369,269,2,2,,,,467,77,15,48.9,35.6,0.3,0.3,,,,61.9,10.2
ELGIN ISD,BOOKER T WASHINGTON ELEMENTARY,BASTROP,-98.17898,26.180607000000123,1212 S FIR ST,PHARR,78577,11902101,01-01-08,623,69,352,194,2,6,,,,446,215,11.1,56.5,31.1,0.3,1,,,,71.6,34.5
ELGIN ISD,ELGIN ELEMENTARY,BASTROP,-95.468856,29.717348,5100 GULFTON ST,HOUSTON,77081,11902102,01-01-08,646,84,348,209,3,2,,,,463,171,13,53.9,32.4,0.5,0.3,,,,71.7,26.5
ELGIN ISD,NEIDIG EL,BASTROP,-96.779508,32.799201,6211 E GRAND BLVD,DALLAS,75223,11902103,01-01-08,618,119,291,199,1,8,,,,400,141,19.3,47.1,32.2,0.2,1.3,,,,64.7,22.8
SAN MARCOS CISD,SAN MARCOS H S,HAYS,-97.12744,32.008434,210 E WALNUT ST,HILLSBORO,76645,105902001,01-01-08,1911,112,1222,558,3,16,,,,982,79,5.9,63.9,29.2,0.2,0.8,,,,51.4,4.1
SAN MARCOS CISD,PRIDE HIGH SCHOOL,HAYS,-98.219338,30.769905,500 E GRAVES,BURNET,78611,105902002,01-01-08,62,2,50,9,0,1,,,,25,3,3.2,80.6,14.5,0,1.6,,,,40.3,4.8
SAN MARCOS CISD,HAYS CO JUVENILE JUSTICE ALTERNAT,HAYS,-98.158962,26.333051,3101 N CLOSNER,EDINBURG,78539,105902004,01-01-08,5,1,3,1,0,0,,,,2,0,20,60,20,0,0,,,,40,0
SAN MARCOS CISD,GOODNIGHT J H,HAYS,-96.335278,30.681807,3251 AUSTIN'S COLONY PKWY,BRYAN,77808,105902041,01-01-08,515,33,359,118,0,5,,,,344,36,6.4,69.7,22.9,0,1,,,,66.8,7
SAN MARCOS CISD,MILLER J H,HAYS,-94.195495,30.243196,1020 S MAIN,LUMBERTON,77657,105902043,01-01-08,563,28,372,160,0,3,,,,304,26,5,66.1,28.4,0,0.5,,,,54,4.6
SAN MARCOS CISD,BOWIE EL,HAYS,-97.850676,29.99731400000012,1700 LEHMAN RD,KYLE,78640,105902101,01-01-08,716,18,579,113,0,6,,,,497,128,2.5,80.9,15.8,0,0.8,,,,69.4,17.9
SAN MARCOS CISD,CROCKETT EL,HAYS,-95.687482,29.918818,19500 TUCKERTON BLVD,CYPRESS,77433,105902102,01-01-08,718,28,462,220,2,6,,,,443,48,3.9,64.3,30.6,0.3,0.8,,,,61.7,6.7
SAN MARCOS CISD,DEZAVALA EL,HAYS,-98.381836,33.164148,300 N MCCLOUD ST,BRYSON,76427,105902103,01-01-08,686,27,524,128,6,1,,,,464,65,3.9,76.4,18.7,0.9,0.1,,,,67.6,9.5
SAN MARCOS CISD,BONHAM PK,HAYS,-95.07891,29.941455,430 N DIAMONDHEAD BLVD,CROSBY,77532,105902104,01-01-08,369,25,305,34,0,5,,,,349,64,6.8,82.7,9.2,0,1.4,,,,94.6,17.3
SAN MARCOS CISD,TRAVIS EL,HAYS,-102.387532041158806,33.589181615502525,1412 E ELLIS,LEVELLAND,79336,105902105,01-01-08,690,39,504,141,3,3,,,,522,62,5.7,73,20.4,0.4,0.4,,,,75.7,9
SAN MARCOS CISD,HERNANDEZ INT,HAYS,-103.485035,31.420376,800 E 11TH ST,PECOS,79772,105902107,01-01-08,1098,47,738,302,1,10,,,,709,99,4.3,67.2,27.5,0.1,0.9,,,,64.6,9
DRIPPING SPRINGS ISD,DRIPPING SPRINGS H S,HAYS,-100.46314,31.423149,18000 WILDCAT DR,WATER VALLEY,76958,105904001,01-01-08,1199,13,144,1020,6,16,,,,76,24,1.1,12,85.1,0.5,1.3,,,,6.3,2
DRIPPING SPRINGS ISD,DRIPPING SPRINGS MIDDLE,HAYS,-97.126832,32.597215,1526 N WALNUT CREEK DR,MANSFIELD,76063,105904041,01-01-08,937,6,115,802,3,11,,,,80,12,0.6,12.3,85.6,0.3,1.2,,,,8.5,1.3
DRIPPING SPRINGS ISD,DRIPPING SPRINGS ELEMENTARY SCHOO,HAYS,-95.260778,29.851098,9606 MESA DR,HOUSTON,77078,105904101,01-01-08,547,3,113,425,1,5,,,,100,59,0.5,20.7,77.7,0.2,0.9,,,,18.3,10.8
DRIPPING SPRINGS ISD,WALNUT SPRINGS ELEMENTARY SCHOOL,HAYS,-96.924629,32.736025,6000 KEENELAND PKWY,DALLAS,75211,105904102,01-01-08,589,4,114,461,3,7,,,,127,45,0.7,19.4,78.3,0.5,1.2,,,,21.6,7.6
DRIPPING SPRINGS ISD,ROOSTER SPRINGS EL,HAYS,-94.948165,32.526156,314 E SAUNDERS,GLADEWATER,75647,105904103,01-01-08,738,4,74,635,2,23,,,,20,7,0.5,10,86,0.3,3.1,,,,2.7,0.9
HAYS CISD,JACK C HAYS H S,HAYS,-97.753169,28.419071,1902 N ADAMS,BEEVILLE,78102,105906001,01-01-08,1762,67,786,889,5,15,,,,483,53,3.8,44.6,50.5,0.3,0.9,,,,27.4,3
HAYS CISD,ALTER IMPACT CTR,HAYS,-96.909187,33.658014,211 COLLEGE,WHITESBORO,76273,105906002,01-01-08,73,6,54,12,1,0,,,,35,4,8.2,74,16.4,1.4,0,,,,47.9,5.5
HAYS CISD,HAYS CO JUVENILE JUSTICE ALT ED P,HAYS,-96.628987,33.628888,120 BINKLEY PARK DR,SHERMAN,75092,105906003,01-01-08,8,1,5,2,0,0,,,,4,0,12.5,62.5,25,0,0,,,,50,0
HAYS CISD,ACADEMY AT HAYS,HAYS,-94.572419,31.264796,950 GIBSON,HUNTINGTON,75949,105906004,01-01-08,109,4,66,39,0,0,,,,32,3,3.7,60.6,35.8,0,0,,,,29.4,2.8
HAYS CISD,LEHMAN HIGH SCHOOL,HAYS,-94.217505,30.256364000000115,103 LHS DR,LUMBERTON,77657,105906005,01-01-08,1529,113,961,430,6,19,,,,709,71,7.4,62.9,28.1,0.4,1.2,,,,46.4,4.6
HAYS CISD,R C BARTON MIDDLE SCHOOL,HAYS,-100.485627,28.720534,2020 2ND ST,EAGLE PASS,78852,105906041,01-01-08,641,22,350,263,1,5,,,,256,42,3.4,54.6,41,0.2,0.8,,,,39.9,6.6
HAYS CISD,DAHLSTROM MIDDLE SCHOOL,HAYS,-95.318602,29.823916,7115 LOCKWOOD,HOUSTON,77016,105906043,01-01-08,762,21,333,407,0,1,,,,191,40,2.8,43.7,53.4,0,0.1,,,,25.1,5.2
HAYS CISD,WALLACE MIDDLE SCHOOL,HAYS,-95.221923,29.642883,338 GILPIN,HOUSTON,77034,105906044,01-01-08,670,50,397,210,4,9,,,,302,34,7.5,59.3,31.3,0.6,1.3,,,,45.1,5.1
HAYS CISD,ARMANDO CHAPA M S,HAYS,-98.185810841999682,26.260747017000583,4701 SUGAR RD,EDINBURG,78539,105906045,01-01-08,763,54,495,203,1,10,,,,379,66,7.1,64.9,26.6,0.1,1.3,,,,49.7,8.7
HAYS CISD,KYLE EL,HAYS,-98.355062999999845,26.280599,5441 LA HOMA RD,MISSION,78572,105906101,01-01-08,674,52,368,245,2,7,,,,254,23,7.7,54.6,36.4,0.3,1,,,,37.7,3.4
HAYS CISD,GREEN EL,HAYS,-102.402551,31.854685000000117,1800 W 22ND ST,ODESSA,79763,105906103,01-01-08,784,19,645,108,3,9,,,,508,393,2.4,82.3,13.8,0.4,1.1,,,,64.8,50.1
HAYS CISD,BUDA EL,HAYS,-98.546799,29.478006,107 RALEIGH PL,SAN ANTONIO,78201,105906106,01-01-08,582,14,219,343,1,5,,,,128,9,2.4,37.6,58.9,0.2,0.9,,,,22,1.5
HAYS CISD,ELM GROVE EL,HAYS,-95.602551,29.677283,9225 S DAIRY ASHFORD,HOUSTON,77099,105906107,01-01-08,641,14,138,483,0,6,,,,72,16,2.2,21.5,75.4,0,0.9,,,,11.2,2.5
HAYS CISD,SUSIE FUENTES EL,HAYS,-97.947067,29.577073,815 LAMAR ST,SEGUIN,78155,105906108,01-01-08,669,53,347,257,7,5,,,,228,25,7.9,51.9,38.4,1,0.7,,,,34.1,3.7
HAYS CISD,HEMPHILL EL,HAYS,-98.83757,27.427646,619 AVE F,BRUNI,78344,105906109,01-01-08,1037,40,881,112,1,3,,,,841,462,3.9,85,10.8,0.1,0.3,,,,81.1,44.6
HAYS CISD,ROSALIO TOBIAS INTERNATIONAL SCHO,HAYS,-99.492114,32.402901,500 HAYS RD,CLYDE,79510,105906110,01-01-08,851,57,523,266,3,2,,,,434,157,6.7,61.5,31.3,0.4,0.2,,,,51,18.4
HAYS CISD,NEGLEY EL,HAYS,-96.974333,32.591364,1515 W BELTLINE RD,CEDAR HILL,75104,105906111,01-01-08,651,11,164,465,5,6,,,,79,6,1.7,25.2,71.4,0.8,0.9,,,,12.1,0.9
HAYS CISD,SCIENCE HALL EL,HAYS,-95.364862,29.935862,1420 ALDINE MEADOWS,HOUSTON,77032,105906112,01-01-08,775,36,572,159,1,7,,,,458,210,4.6,73.8,20.5,0.1,0.9,,,,59.1,27.1
AUSTIN ISD,AUSTIN H S,TRAVIS,-96.141838,28.898216,144 FM 1095,EL MATON,77440,227901002,01-01-08,2232,173,930,1091,6,32,,,,674,134,7.8,41.7,48.9,0.3,1.4,,,,30.2,6
AUSTIN ISD,JOHNSTON H S,TRAVIS,-95.566761,29.669347,10711 KIPP WAY,HOUSTON,77099,227901003,01-01-08,659,101,549,8,0,1,,,,529,155,15.3,83.3,1.2,0,0.2,,,,80.3,23.5
AUSTIN ISD,LANIER H S,TRAVIS,-95.583838999999898,29.963235,13102 JONES RD,HOUSTON,77070,227901004,01-01-08,1599,216,1232,111,4,36,,,,1254,590,13.5,77,6.9,0.3,2.3,,,,78.4,36.9
AUSTIN ISD,MCCALLUM H S,TRAVIS,-96.762024,32.762486,3732 MYRTLE ST,DALLAS,75215,227901005,01-01-08,1674,358,472,814,9,21,,,,581,87,21.4,28.2,48.6,0.5,1.3,,,,34.7,5.2
AUSTIN ISD,REAGAN H S,TRAVIS,-95.239654,29.658788000000129,1500 MAIN ST,SOUTH HOUSTON,77587,227901006,01-01-08,935,280,631,19,1,4,,,,753,294,29.9,67.5,2,0.1,0.4,,,,80.5,31.4
AUSTIN ISD,TRAVIS H S,TRAVIS,-99.964963,31.750132,2107 N BROADWAY,BALLINGER,76821,227901007,01-01-08,1520,196,1234,79,2,9,,,,1204,396,12.9,81.2,5.2,0.1,0.6,,,,79.2,26.1
AUSTIN ISD,CROCKETT H S,TRAVIS,-96.880539,33.096838,5105 N COLONY BLVD,THE COLONY,75056,227901008,01-01-08,1886,189,1187,482,7,21,,,,949,200,10,62.9,25.6,0.4,1.1,,,,50.3,10.6
AUSTIN ISD,ANDERSON H S,TRAVIS,-96.690181,33.040500000000122,3300 AVE P,PLANO,75074,227901009,01-01-08,2100,158,484,1328,7,123,,,,389,97,7.5,23,63.2,0.3,5.9,,,,18.5,4.6
AUSTIN ISD,ALTERNATIVE LEARNING CENTER,TRAVIS,-97.085156,33.153777,2300 OAKMONT,CORINTH,76210,227901012,01-01-08,180,36,124,15,2,3,,,,136,40,20,68.9,8.3,1.1,1.7,,,,75.6,22.2
AUSTIN ISD,BOWIE H S,TRAVIS,-95.447512,30.009766000000109,16711 ELLA BLVD,HOUSTON,77090,227901013,01-01-08,2776,117,742,1751,19,147,,,,250,43,4.2,26.7,63.1,0.7,5.3,,,,9,1.5
AUSTIN ISD,LBJ HIGH SCHOOL,TRAVIS,-95.822053,29.796611,5618 W 11TH ST,KATY,77493,227901014,01-01-08,966,475,470,18,0,3,,,,723,163,49.2,48.7,1.9,0,0.3,,,,74.8,16.9
AUSTIN ISD,GARZA INDEPENDENCE H S,TRAVIS,-96.802498,31.847736,1801 W HWY 31,HUBBARD,76648,227901015,01-01-08,265,30,91,143,0,1,,,,69,8,11.3,34.3,54,0,0.4,,,,26,3
AUSTIN ISD,AKINS H S,TRAVIS,-98.20932,26.260634,201 E MARTIN AVE,MCALLEN,78504,227901017,01-01-08,2452,285,1642,461,5,59,,,,1332,279,11.6,67,18.8,0.2,2.4,,,,54.3,11.4
AUSTIN ISD,LASA HIGH SCHOOL,TRAVIS,-101.915285,33.55217,4815 46TH ST,LUBBOCK,79414,227901018,01-01-08,854,54,227,453,1,119,,,,209,4,6.3,26.6,53,0.1,13.9,,,,24.5,0.5
AUSTIN ISD,RICHARDS SCH FOR YOUNG WOMEN LEAD,TRAVIS,-96.619533,33.114659,1751 E EXCHANGE PKWY,ALLEN,75002,227901028,01-01-08,221,39,116,62,0,4,,,,140,24,17.6,52.5,28.1,0,1.8,,,,63.3,10.9
AUSTIN ISD,INTERNATIONAL H S,TRAVIS,-95.750534859999675,29.533918019000421,6110 AUGUST GREEN DR,RICHMOND,77469,227901029,01-01-08,190,6,169,1,0,14,,,,171,170,3.2,88.9,0.5,0,7.4,,,,90,89.5
AUSTIN ISD,TRAVIS COUNTY JUVENILE DETENTION,TRAVIS,-97.552133,30.341578,18010 BLAKE MANOR RD,MANOR,78653,227901030,01-01-08,87,23,56,8,0,0,,,,38,13,26.4,64.4,9.2,0,0,,,,43.7,14.9
AUSTIN ISD,PHOENIX ACADEMY,TRAVIS,-93.896369,29.947195,2500 TAFT AVE,PORT ARTHUR,77642,227901032,01-01-08,31,3,18,9,1,0,,,,1,0,9.7,58.1,29,3.2,0,,,,3.2,0
AUSTIN ISD,LEADERSHIP ACADEMY,TRAVIS,-94.74359,31.309225,208 N JOHN REDDITT,LUFKIN,75904,227901035,01-01-08,63,17,39,7,0,0,,,,17,11,27,61.9,11.1,0,0,,,,27,17.5
AUSTIN ISD,TRAVIS COUNTY J J A E P,TRAVIS,-96.635956,32.829374,4621 GLENEAGLE ST,MESQUITE,75150,227901036,01-01-08,14,0,14,0,0,0,,,,14,10,0,100,0,0,0,,,,100,71.4
AUSTIN ISD,FULMORE M S,TRAVIS,-95.50344,29.662439,10901 SANDPIPER,HOUSTON,77096,227901043,01-01-08,1034,116,728,173,1,16,,,,727,215,11.2,70.4,16.7,0.1,1.5,,,,70.3,20.8
AUSTIN ISD,KEALING M S,TRAVIS,-96.761848,32.756155,2425 PINE ST,DALLAS,75215,227901044,01-01-08,1210,254,375,473,3,105,,,,527,75,21,31,39.1,0.2,8.7,,,,43.6,6.2
AUSTIN ISD,LAMAR M S,TRAVIS,-97.947332,29.858847,1301 HWY 123,SAN MARCOS,78666,227901045,01-01-08,741,111,293,308,5,24,,,,371,94,15,39.5,41.6,0.7,3.2,,,,50.1,12.7
AUSTIN ISD,BURNET M S,TRAVIS,-97.124855,30.87088,203 S 10TH,BUCKHOLTS,76518,227901046,01-01-08,980,149,747,62,2,20,,,,916,417,15.2,76.2,6.3,0.2,2,,,,93.5,42.6
AUSTIN ISD,O HENRY M S,TRAVIS,-96.409698,32.745982,1750 IRON GATE BLVD,FORNEY,75126,227901047,01-01-08,896,73,352,451,1,19,,,,328,50,8.1,39.3,50.3,0.1,2.1,,,,36.6,5.6
AUSTIN ISD,PEARCE M S,TRAVIS,-95.162276,29.701795,501 GLENMORE,PASADENA,77503,227901048,01-01-08,569,172,393,3,1,0,,,,537,218,30.2,69.1,0.5,0.2,0,,,,94.4,38.3
AUSTIN ISD,MARTIN M S,TRAVIS,-95.995757,32.289474,318 F M RD 316 S,EUSTACE,75124,227901051,01-01-08,753,63,667,15,1,7,,,,694,189,8.4,88.6,2,0.1,0.9,,,,92.2,25.1
AUSTIN ISD,MURCHISON M S,TRAVIS,-96.481119,32.735469,1800 FM 741 S,FORNEY,75126,227901052,01-01-08,1154,73,252,739,6,84,,,,198,75,6.3,21.8,64,0.5,7.3,,,,17.2,6.5
AUSTIN ISD,WEBB M S,TRAVIS,-95.187736,29.964424,13515 VALLEY LODGE PKWY,HUMBLE,77346,227901053,01-01-08,497,59,424,10,1,3,,,,474,268,11.9,85.3,2,0.2,0.6,,,,95.4,53.9
AUSTIN ISD,BEDICHEK M S,TRAVIS,-100.597398,35.235106,600 ROWE ST,MCLEAN,79057,227901054,01-01-08,1152,113,851,177,0,11,,,,859,214,9.8,73.9,15.4,0,1,,,,74.6,18.6
AUSTIN ISD,DOBIE M S,TRAVIS,-96.591312,33.092278,450 COUNTRY CLUB RD,LUCAS,75002,227901055,01-01-08,503,65,408,23,0,7,,,,465,262,12.9,81.1,4.6,0,1.4,,,,92.4,52.1
AUSTIN ISD,GARCIA M S,TRAVIS,-97.062859,33.064787,5707 A MORRIS RD,FLOWER MOUND,75028,227901056,01-01-08,612,278,328,6,0,0,,,,552,154,45.4,53.6,1,0,0,,,,90.2,25.2
AUSTIN ISD,COVINGTON M S,TRAVIS,-101.393838,35.650256,1321 S FLORIDA,BORGER,79007,227901057,01-01-08,1033,96,589,328,3,17,,,,532,105,9.3,57,31.8,0.3,1.6,,,,51.5,10.2
AUSTIN ISD,MENDEZ M S,TRAVIS,-95.842776,33.377898,409 W MAIN ST,PECAN GAP,75469,227901058,01-01-08,1000,97,872,26,4,1,,,,907,329,9.7,87.2,2.6,0.4,0.1,,,,90.7,32.9
AUSTIN ISD,BAILEY M S,TRAVIS,-98.400038,29.95088,1500 ROCKY RD,BLANCO,78606,227901059,01-01-08,1149,55,326,698,3,67,,,,174,31,4.8,28.4,60.7,0.3,5.8,,,,15.1,2.7
AUSTIN ISD,SMALL M S,TRAVIS,-95.492538,30.42988500000012,701 GERALD ST,WILLIS,77378,227901060,01-01-08,1167,52,304,733,6,72,,,,206,52,4.5,26,62.8,0.5,6.2,,,,17.7,4.5
AUSTIN ISD,PAREDES M S,TRAVIS,-96.802292,32.732817,1515 LYNN HAVEN AVE,DALLAS,75216,227901061,01-01-08,985,111,695,151,2,26,,,,665,162,11.3,70.6,15.3,0.2,2.6,,,,67.5,16.4
AUSTIN ISD,ALLISON EL,TRAVIS,-100.378831,32.742494,141 S COLLEGE ST,ROBY,79543,227901101,01-01-08,500,43,449,7,0,1,,,,476,188,8.6,89.8,1.4,0,0.2,,,,95.2,37.6
AUSTIN ISD,ANDREWS EL,TRAVIS,-97.173495,32.837894000000119,1400 CAVENDER DR,HURST,76053,227901102,01-01-08,610,171,425,12,0,2,,,,568,355,28,69.7,2,0,0.3,,,,93.1,58.2
AUSTIN ISD,BARTON HILLS EL,TRAVIS,-95.209773,29.707029,400 PARK LN,PASADENA,77506,227901103,01-01-08,360,8,75,264,0,13,,,,43,5,2.2,20.8,73.3,0,3.6,,,,11.9,1.4
AUSTIN ISD,BECKER EL,TRAVIS,-94.694787,31.309957,502 JOYCE LN,LUFKIN,75901,227901104,01-01-08,217,31,169,16,1,0,,,,191,85,14.3,77.9,7.4,0.5,0,,,,88,39.2
AUSTIN ISD,BLACKSHEAR EL,TRAVIS,-94.804107,32.523768000000125,600 PT PKWY,LONGVIEW,75604,227901105,01-01-08,275,65,207,3,0,0,,,,267,123,23.6,75.3,1.1,0,0,,,,97.1,44.7
AUSTIN ISD,BLANTON EL,TRAVIS,-98.079648,29.708374,2002 FM 1101,NEW BRAUNFELS,78130,227901106,01-01-08,575,70,479,25,1,0,,,,541,365,12.2,83.3,4.3,0.2,0,,,,94.1,63.5
AUSTIN ISD,BRENTWOOD EL,TRAVIS,-95.318,29.694412,6301 S LOOP E,HOUSTON,77087,227901107,01-01-08,422,33,194,190,1,4,,,,238,72,7.8,46,45,0.2,0.9,,,,56.4,17.1
AUSTIN ISD,BROOKE EL,TRAVIS,-96.46598,32.633307000000116,11601 W HWY 175,CRANDALL,75114,227901108,01-01-08,341,33,297,11,0,0,,,,318,108,9.7,87.1,3.2,0,0,,,,93.3,31.7
AUSTIN ISD,BROWN EL,TRAVIS,-98.217256,32.218868,1067 W JONES,STEPHENVILLE,76401,227901109,01-01-08,505,34,452,15,0,4,,,,483,359,6.7,89.5,3,0,0.8,,,,95.6,71.1
AUSTIN ISD,BRYKER WOODS EL,TRAVIS,-101.298738,35.66934400000013,9849 FM 2171,SKELLYTOWN,79080,227901110,01-01-08,394,24,67,282,2,19,,,,48,12,6.1,17,71.6,0.5,4.8,,,,12.2,3
AUSTIN ISD,CAMPBELL EL,TRAVIS,-95.569316,30.052811,9225 CRESCENT CLOVER DR,KLEIN,77379,227901111,01-01-08,342,196,143,3,0,0,,,,310,88,57.3,41.8,0.9,0,0,,,,90.6,25.7
AUSTIN ISD,CASIS EL,TRAVIS,-101.820131,35.204245000000114,700 S ROBERTS,AMARILLO,79102,227901112,01-01-08,777,24,77,652,0,24,,,,32,28,3.1,9.9,83.9,0,3.1,,,,4.1,3.6
AUSTIN ISD,CUNNINGHAM EL,TRAVIS,-106.463473,31.815374,4400 ELM ST,EL PASO,79930,227901113,01-01-08,541,57,307,151,2,24,,,,333,87,10.5,56.7,27.9,0.4,4.4,,,,61.6,16.1
AUSTIN ISD,DAWSON EL,TRAVIS,-95.969657,28.693355000000107,717 WIGHTMAN ST,MATAGORDA,77457,227901114,01-01-08,359,19,320,20,0,0,,,,326,150,5.3,89.1,5.6,0,0,,,,90.8,41.8
AUSTIN ISD,ACES- ALTERNATIVE CENTER FOR ELEM,TRAVIS,-97.230625,30.929928,114 EAGLE DR,ROGERS,76569,227901115,01-01-08,18,12,4,2,0,0,,,,17,1,66.7,22.2,11.1,0,0,,,,94.4,5.6
AUSTIN ISD,GOVALLE EL,TRAVIS,-101.805368,33.169046,1925 AVE O,TAHOKA,79373,227901116,01-01-08,376,69,301,6,0,0,,,,353,148,18.4,80.1,1.6,0,0,,,,93.9,39.4
AUSTIN ISD,GULLETT EL,TRAVIS,-96.507133,29.558903,1093 RAIDER DR,ALTAIR,77412,227901117,01-01-08,463,10,52,386,3,12,,,,37,4,2.2,11.2,83.4,0.6,2.6,,,,8,0.9
AUSTIN ISD,HARRIS EL,TRAVIS,-95.466432,29.525148,1100 W SYCAMORE,FRESNO,77545,227901118,01-01-08,693,83,594,13,3,0,,,,678,507,12,85.7,1.9,0.4,0,,,,97.8,73.2
AUSTIN ISD,HIGHLAND PARK EL,TRAVIS,-96.266288,32.738916,1200 E BRIN ST,TERRELL,75160,227901119,01-01-08,557,13,61,455,0,28,,,,29,10,2.3,11,81.7,0,5,,,,5.2,1.8
AUSTIN ISD,JOSLIN EL,TRAVIS,-94.935911,29.753017,2610 ELVINTA ST,BAYTOWN,77520,227901120,01-01-08,350,23,259,64,2,2,,,,279,112,6.6,74,18.3,0.6,0.6,,,,79.7,32
AUSTIN ISD,LEE EL,TRAVIS,-95.367332,29.657703,9215 SCOTT ST,HOUSTON,77051,227901121,01-01-08,401,26,99,233,5,38,,,,32,17,6.5,24.7,58.1,1.2,9.5,,,,8,4.2
AUSTIN ISD,MAPLEWOOD EL,TRAVIS,-97.275262,29.093077,608 JUNIOR HIGH DR,CUERO,77954,227901122,01-01-08,344,127,143,67,0,7,,,,253,66,36.9,41.6,19.5,0,2,,,,73.5,19.2
AUSTIN ISD,MATHEWS EL,TRAVIS,-96.745330999999851,33.033716000000133,2701 PARKHAVEN DR,PLANO,75075,227901123,01-01-08,413,37,148,155,0,73,,,,208,87,9,35.8,37.5,0,17.7,,,,50.4,21.1
AUSTIN ISD,METZ EL,TRAVIS,-101.450753,34.122156,310 W 8TH ST,LOCKNEY,79241,227901124,01-01-08,601,10,581,10,0,0,,,,560,323,1.7,96.7,1.7,0,0,,,,93.2,53.7
AUSTIN ISD,OAK SPRINGS EL,TRAVIS,-95.529563,29.697557000000121,8200 CARVEL LN,HOUSTON,77036,227901125,01-01-08,320,131,181,8,0,0,,,,319,66,40.9,56.6,2.5,0,0,,,,99.7,20.6
AUSTIN ISD,ORTEGA EL,TRAVIS,-95.528297,29.855138,14104 REO ST,HOUSTON,77040,227901126,01-01-08,253,32,218,2,0,1,,,,239,102,12.6,86.2,0.8,0,0.4,,,,94.5,40.3
AUSTIN ISD,SANCHEZ EL,TRAVIS,-98.264359,29.563043,204 WRIGHT AVE,SCHERTZ,78154,227901127,01-01-08,552,14,520,10,0,8,,,,505,341,2.5,94.2,1.8,0,1.4,,,,91.5,61.8
AUSTIN ISD,PEASE EL,TRAVIS,-98.413445603142634,29.407333387274761,463 HOLMGREEN,SAN ANTONIO,78220,227901128,01-01-08,254,63,119,67,0,5,,,,61,4,24.8,46.9,26.4,0,2,,,,24,1.6
AUSTIN ISD,PECAN SPRINGS EL,TRAVIS,-97.349959999999896,27.702754000000134,6630 MCARDLE RD,CORPUS CHRISTI,78412,227901129,01-01-08,548,229,304,10,2,3,,,,521,210,41.8,55.5,1.8,0.4,0.5,,,,95.1,38.3
AUSTIN ISD,PLEASANT HILL EL,TRAVIS,-97.306488,31.210727,205 N WACO RD,TROY,76579,227901130,01-01-08,596,55,498,38,3,2,,,,531,218,9.2,83.6,6.4,0.5,0.3,,,,89.1,36.6
AUSTIN ISD,READ PRE-K DEMONSTRATION SCH,TRAVIS,-94.146728,33.120634,705 RABBIT BLVD,ATLANTA,75551,227901131,01-01-08,580,64,490,14,0,12,,,,526,443,11,84.5,2.4,0,2.1,,,,90.7,76.4
AUSTIN ISD,REILLY EL,TRAVIS,-98.057222,26.191848000000107,3207 N GOOLIE RD,DONNA,78537,227901132,01-01-08,263,8,238,16,0,1,,,,237,149,3,90.5,6.1,0,0.4,,,,90.1,56.7
AUSTIN ISD,RIDGETOP EL,TRAVIS,-97.23957,30.283477000000122,156 MARLIN ST,MCDADE,78650,227901133,01-01-08,213,20,173,18,0,2,,,,197,125,9.4,81.2,8.5,0,0.9,,,,92.5,58.7
AUSTIN ISD,ST ELMO EL,TRAVIS,-98.669601999999884,31.556774000000114,403 BULLDOG DR,MULLIN,76864,227901136,01-01-08,417,8,380,18,0,11,,,,380,249,1.9,91.1,4.3,0,2.6,,,,91.1,59.7
AUSTIN ISD,SUMMITT EL,TRAVIS,-98.855051,26.398186,2801 W EISENHOWER ST,RIO GRANDE CITY,78582,227901138,01-01-08,553,52,151,304,2,44,,,,168,71,9.4,27.3,55,0.4,8,,,,30.4,12.8
AUSTIN ISD,SIMS EL,TRAVIS,-97.005016,30.414377,8783 N HWY 77,LEXINGTON,78947,227901139,01-01-08,409,191,216,2,0,0,,,,394,140,46.7,52.8,0.5,0,0,,,,96.3,34.2
AUSTIN ISD,TRAVIS HTS EL,TRAVIS,-95.657479,29.717719,15040 WESTPARK DR,HOUSTON,77082,227901140,01-01-08,590,54,403,123,1,9,,,,453,144,9.2,68.3,20.8,0.2,1.5,,,,76.8,24.4
AUSTIN ISD,WALNUT CREEK EL,TRAVIS,-98.441765,29.379049,734 GLAMIS AVE,SAN ANTONIO,78223,227901141,01-01-08,955,86,630,30,0,209,,,,849,680,9,66,3.1,0,21.9,,,,88.9,71.2
AUSTIN ISD,ALLAN EL,TRAVIS,-98.198585,26.280545,2821 W CANTON RD,EDINBURG,78539,227901142,01-01-08,402,28,369,5,0,0,,,,389,216,7,91.8,1.2,0,0,,,,96.8,53.7
AUSTIN ISD,PATTON EL,TRAVIS,-93.865554,30.075016,10288 FM 105,ORANGEFIELD,77639,227901143,01-01-08,748,54,187,402,1,104,,,,175,69,7.2,25,53.7,0.1,13.9,,,,23.4,9.2
AUSTIN ISD,WOOTEN EL,TRAVIS,-96.983386,32.722316,1729 AVE B,GRAND PRAIRIE,75051,227901144,01-01-08,640,46,568,21,0,5,,,,621,471,7.2,88.8,3.3,0,0.8,,,,97,73.6
AUSTIN ISD,ZAVALA EL,TRAVIS,-95.242095,29.670196,9595 WINKLER,HOUSTON,77017,227901145,01-01-08,457,40,405,10,1,1,,,,426,196,8.8,88.6,2.2,0.2,0.2,,,,93.2,42.9
AUSTIN ISD,ZILKER EL,TRAVIS,-95.838439,32.158568,6800 STATE HWY 19 S,ATHENS,75751,227901146,01-01-08,479,23,154,292,0,10,,,,185,41,4.8,32.2,61,0,2.1,,,,38.6,8.6
AUSTIN ISD,MENCHACA EL,TRAVIS,-98.472394,29.241313,"19190 HWY 281, S #2",SAN ANTONIO,78221,227901147,01-01-08,679,45,337,251,3,43,,,,303,142,6.6,49.6,37,0.4,6.3,,,,44.6,20.9
AUSTIN ISD,OAK HILL EL,TRAVIS,-96.494568,33.183375,1019 N 6TH ST,PRINCETON,75407,227901148,01-01-08,924,22,321,536,3,42,,,,313,177,2.4,34.7,58,0.3,4.5,,,,33.9,19.2
AUSTIN ISD,BARRINGTON EL,TRAVIS,-96.685409,33.033674,2200 LAUREL LN,PLANO,75074,227901149,01-01-08,820,80,700,35,3,2,,,,784,527,9.8,85.4,4.3,0.4,0.2,,,,95.6,64.3
AUSTIN ISD,NORMAN EL,TRAVIS,-95.417074,29.875803,800 RINGOLD ST,HOUSTON,77088,227901150,01-01-08,397,206,188,3,0,0,,,,380,110,51.9,47.4,0.8,0,0,,,,95.7,27.7
AUSTIN ISD,PILLOW EL,TRAVIS,-98.90493,32.766325,300 W 7TH ST,BRECKENRIDGE,76424,227901151,01-01-08,546,124,265,99,4,54,,,,332,188,22.7,48.5,18.1,0.7,9.9,,,,60.8,34.4
AUSTIN ISD,WOOLDRIDGE EL,TRAVIS,-102.003259,36.049275000000115,100 S DR,CACTUS,79013,227901152,01-01-08,826,35,743,29,1,18,,,,800,647,4.2,90,3.5,0.1,2.2,,,,96.9,78.3
AUSTIN ISD,DOSS EL,TRAVIS,-98.199137,26.318454,1202 N  MONMACK RD,EDINBURG,78539,227901154,01-01-08,657,15,90,456,3,93,,,,83,103,2.3,13.7,69.4,0.5,14.2,,,,12.6,15.7
AUSTIN ISD,HILL EL,TRAVIS,-97.971542,29.575904,1567 W KINGSBURY,SEGUIN,78155,227901155,01-01-08,666,36,123,459,1,47,,,,90,42,5.4,18.5,68.9,0.2,7.1,,,,13.5,6.3
AUSTIN ISD,ODOM EL,TRAVIS,-101.825059,35.228415,1400 N GRANT,AMARILLO,79107,227901156,01-01-08,753,57,628,66,2,0,,,,661,289,7.6,83.4,8.8,0.3,0,,,,87.8,38.4
AUSTIN ISD,WINN EL,TRAVIS,-95.530485,29.701178,8301 NEFF ST,HOUSTON,77036,227901157,01-01-08,509,184,321,4,0,0,,,,485,270,36.1,63.1,0.8,0,0,,,,95.3,53
AUSTIN ISD,SUNSET VALLEY EL,TRAVIS,-98.514465,29.432433000000117,1000 PEREZ ST,SAN ANTONIO,78207,227901158,01-01-08,435,17,344,63,3,8,,,,328,210,3.9,79.1,14.5,0.7,1.8,,,,75.4,48.3
AUSTIN ISD,GRAHAM EL,TRAVIS,-106.185407,31.681359,14510 MCMAHON DR,EL PASO,79928,227901159,01-01-08,666,121,520,20,0,5,,,,612,418,18.2,78.1,3,0,0.8,,,,91.9,62.8
AUSTIN ISD,LINDER EL,TRAVIS,-98.325922,26.275296,842 W SAINT FRANCIS AVE,ALTON,78573,227901160,01-01-08,928,60,834,24,0,10,,,,880,560,6.5,89.9,2.6,0,1.1,,,,94.8,60.3
AUSTIN ISD,COOK EL,TRAVIS,-94.892991,30.031778,151 BROWN RD,DAYTON,77535,227901161,01-01-08,842,151,629,45,1,16,,,,808,512,17.9,74.7,5.3,0.1,1.9,,,,96,60.8
AUSTIN ISD,HOUSTON EL,TRAVIS,-95.162346,29.7059,401 GLENMORE,PASADENA,77503,227901162,01-01-08,910,65,821,20,3,1,,,,849,556,7.1,90.2,2.2,0.3,0.1,,,,93.3,61.1
AUSTIN ISD,HART EL,TRAVIS,-104.348457,29.565348,1515 HIGHLAND ST,PRESIDIO,79845,227901163,01-01-08,814,77,718,12,2,5,,,,765,602,9.5,88.2,1.5,0.2,0.6,,,,94,74
AUSTIN ISD,PICKLE EL,TRAVIS,-97.541537,25.971729,2977 W TANDY RD,BROWNSVILLE,78521,227901164,01-01-08,680,90,589,1,0,0,,,,657,479,13.2,86.6,0.1,0,0,,,,96.6,70.4
AUSTIN ISD,MCBEE EL,TRAVIS,-95.581472,29.589983,2335 DULLES AVE,MISSOURI CITY,77459,227901165,01-01-08,707,114,579,13,0,1,,,,678,473,16.1,81.9,1.8,0,0.1,,,,95.9,66.9
AUSTIN ISD,WILLIAMS EL,TRAVIS,-95.137038,29.681505,5010 PASADENA BLVD,DEER PARK,77536,227901166,01-01-08,625,49,487,87,0,2,,,,458,197,7.8,77.9,13.9,0,0.3,,,,73.3,31.5
AUSTIN ISD,LANGFORD EL,TRAVIS,-97.906628,30.195203,7525 LA CROSSE AVE,AUSTIN,78739,227901168,01-01-08,852,72,741,36,0,3,,,,783,516,8.5,87,4.2,0,0.4,,,,91.9,60.6
AUSTIN ISD,BOONE EL,TRAVIS,-95.496608,29.708937,6565 ROOKIN ST,HOUSTON,77074,227901170,01-01-08,536,58,282,184,2,10,,,,262,74,10.8,52.6,34.3,0.4,1.9,,,,48.9,13.8
AUSTIN ISD,PALM EL,TRAVIS,-98.408387,30.277997,401 E PECAN ST,JOHNSON CITY,78636,227901171,01-01-08,641,85,524,27,0,5,,,,540,227,13.3,81.7,4.2,0,0.8,,,,84.2,35.4
AUSTIN ISD,KOCUREK EL,TRAVIS,-98.477863,29.383566,4018 S PRESA ST,SAN ANTONIO,78223,227901172,01-01-08,664,55,383,201,3,22,,,,383,114,8.3,57.7,30.3,0.5,3.3,,,,57.7,17.2
AUSTIN ISD,CASEY EL,TRAVIS,-95.35049,29.232185000000143,5611 PANTHER DR,DANBURY,77534,227901173,01-01-08,768,84,479,172,3,30,,,,478,135,10.9,62.4,22.4,0.4,3.9,,,,62.2,17.6
AUSTIN ISD,RODRIGUEZ EL,TRAVIS,-98.625498,29.487306,6901 SHADOW MIST,SAN ANTONIO,78238,227901174,01-01-08,946,112,818,14,0,2,,,,913,542,11.8,86.5,1.5,0,0.2,,,,96.5,57.3
AUSTIN ISD,WIDEN EL,TRAVIS,-96.397474,32.943802,100 MISS MAY DR,FATE,75132,227901175,01-01-08,848,85,743,18,1,1,,,,762,457,10,87.6,2.1,0.1,0.1,,,,89.9,53.9
AUSTIN ISD,GALINDO EL,TRAVIS,-99.791514,32.940338,800 E REYNOLDS,STAMFORD,79553,227901176,01-01-08,742,32,659,48,1,2,,,,663,364,4.3,88.8,6.5,0.1,0.3,,,,89.4,49.1
AUSTIN ISD,JORDAN EL,TRAVIS,-95.645044882999684,29.686765306000549,8500 HWY 6 S,HOUSTON,77083,227901178,01-01-08,613,140,461,11,0,1,,,,576,381,22.8,75.2,1.8,0,0.2,,,,94,62.2
AUSTIN ISD,DAVIS EL,TRAVIS,-106.590043,31.860285,201 W REDD RD,EL PASO,79932,227901179,01-01-08,625,43,134,361,4,83,,,,138,108,6.9,21.4,57.8,0.6,13.3,,,,22.1,17.3
AUSTIN ISD,KIKER EL,TRAVIS,-106.429162,31.865954,4825 ALPS,EL PASO,79904,227901180,01-01-08,701,9,90,536,0,66,,,,20,19,1.3,12.8,76.5,0,9.4,,,,2.9,2.7
AUSTIN ISD,MILLS EL,TRAVIS,-96.777309,33.182700000000125,12721 HONEY GROVE DR,FRISCO,75035,227901181,01-01-08,972,32,174,612,2,152,,,,75,121,3.3,17.9,63,0.2,15.6,,,,7.7,12.4
AUSTIN ISD,BARANOFF EL,TRAVIS,-97.074087,28.767774,62 CHAPARRAL,VICTORIA,77901,227901182,01-01-08,785,28,187,514,5,51,,,,50,25,3.6,23.8,65.5,0.6,6.5,,,,6.4,3.2
AUSTIN ISD,COWAN EL,TRAVIS,-96.36882,33.047587000000121,615 FM 1138 N,NEVADA,75173,227901183,01-01-08,648,40,248,318,0,42,,,,162,49,6.2,38.3,49.1,0,6.5,,,,25,7.6
AUSTIN ISD,CLAYTON EL,TRAVIS,-97.083685,32.610693,8100 WEBB FERRELL RD,ARLINGTON,76002,227901184,01-01-08,810,18,120,585,2,85,,,,36,46,2.2,14.8,72.2,0.2,10.5,,,,4.4,5.7
AUSTIN ISD,BLAZIER EL,TRAVIS,-97.522301,33.691218,201 EVANS,SAINT JO,76265,227901185,01-01-08,444,49,311,63,1,20,,,,313,123,11,70,14.2,0.2,4.5,,,,70.5,27.7
AUSTIN ISD,OVERTON EL,TRAVIS,-95.527098,30.018106,7425 LOUETTA RD,KLEIN,77379,227901189,01-01-08,541,228,310,3,0,0,,,,510,232,42.1,57.3,0.6,0,0,,,,94.3,42.9
AUSTIN ISD,PEREZ EL,TRAVIS,-98.804201,29.234373000000115,11550 LAREDO,LYTLE,78052,227901190,01-01-08,743,83,624,32,0,4,,,,665,340,11.2,84,4.3,0,0.5,,,,89.5,45.8
AUSTIN ISD,AUSTIN ST HOSPITAL,TRAVIS,-97.46273,32.745565,8301 DOWNE DR,FORT WORTH,76108,227901250,01-01-08,18,7,4,7,0,0,,,,4,0,38.9,22.2,38.9,0,0,,,,22.2,0
AUSTIN ISD,ROSEDALE,TRAVIS,-96.727073,30.787256,400 COLLEGE,GAUSE,77857,227901251,01-01-08,98,18,34,43,0,3,,,,47,16,18.4,34.7,43.9,0,3.1,,,,48,16.3
PFLUGERVILLE ISD,PFLUGERVILLE H S,TRAVIS,-95.576478,32.929671,105 W OAK,YANTIS,75497,227904001,01-01-08,2165,514,609,868,5,169,,,,584,69,23.7,28.1,40.1,0.2,7.8,,,,27,3.2
PFLUGERVILLE ISD,ALTER LEARNING CTR,TRAVIS,-98.656179,29.224457,19930 TOUCHSTONE,SOMERSET,78069,227904002,01-01-08,200,59,99,36,0,6,,,,76,15,29.5,49.5,18,0,3,,,,38,7.5
PFLUGERVILLE ISD,JOHN B CONNALLY H S,TRAVIS,-101.381677,33.188826,405 W 8TH,POST,79356,227904003,01-01-08,2029,564,725,437,5,298,,,,869,220,27.8,35.7,21.5,0.2,14.7,,,,42.8,10.8
PFLUGERVILLE ISD,HENDRICKSON HS,TRAVIS,-98.978673,31.691469,2707 SOUTHSIDE DR,BROWNWOOD,76801,227904004,01-01-08,1659,355,465,766,2,71,,,,474,50,21.4,28,46.2,0.1,4.3,,,,28.6,3
PFLUGERVILLE ISD,TRAVIS CO J J A E P,TRAVIS,-97.397827,27.742331,3445 PECAN,CORPUS CHRISTI,78411,227904008,01-01-08,5,1,3,1,0,0,,,,2,0,20,60,20,0,0,,,,40,0
PFLUGERVILLE ISD,PFLUGERVILLE MIDDLE,TRAVIS,-95.623141,32.297534,13951 SAYLORS,BROWNSBORO,75756,227904041,01-01-08,1093,264,365,382,5,77,,,,423,92,24.2,33.4,34.9,0.5,7,,,,38.7,8.4
PFLUGERVILLE ISD,WESTVIEW MIDDLE,TRAVIS,-96.340784,33.427019,500 S BALLENTINE,TRENTON,75490,227904042,01-01-08,786,196,363,152,1,74,,,,477,116,24.9,46.2,19.3,0.1,9.4,,,,60.7,14.8
PFLUGERVILLE ISD,PARK CREST MIDDLE,TRAVIS,-94.185699,30.073095,350 ELDRIDGE DR,BEAUMONT,77707,227904043,01-01-08,934,247,264,339,1,83,,,,343,28,26.4,28.3,36.3,0.1,8.9,,,,36.7,3
PFLUGERVILLE ISD,ALTER LEARNING MIDDLE,TRAVIS,-99.269778,26.90923,1302 GLENN ST,ZAPATA,78076,227904044,01-01-08,18,4,11,3,0,0,,,,9,1,22.2,61.1,16.7,0,0,,,,50,5.6
PFLUGERVILLE ISD,DESSAU MIDDLE SCHOOL,TRAVIS,-95.481495,32.289082,22250 BARRON RD,CHANDLER,75758,227904045,01-01-08,981,279,414,163,2,123,,,,584,155,28.4,42.2,16.6,0.2,12.5,,,,59.5,15.8
PFLUGERVILLE ISD,KELLY LANE M S,TRAVIS,-97.962273,26.185803000000135,2931 E SUGAR CANE DR,WESLACO,78599,227904046,01-01-08,782,122,199,436,3,22,,,,148,16,15.6,25.4,55.8,0.4,2.8,,,,18.9,2
PFLUGERVILLE ISD,PFLUGERVILLE EL,TRAVIS,-97.638894,30.273572,8509 FM 969 STE 200,AUSTIN,78724,227904101,01-01-08,545,97,168,239,4,37,,,,175,41,17.8,30.8,43.9,0.7,6.8,,,,32.1,7.5
PFLUGERVILLE ISD,PARMER LANE EL,TRAVIS,-96.643786,32.309174,2200 W LAMPASAS,ENNIS,75119,227904102,01-01-08,622,76,361,111,0,74,,,,387,296,12.2,58,17.8,0,11.9,,,,62.2,47.6
PFLUGERVILLE ISD,TIMMERMAN EL,TRAVIS,-97.268396,32.900825,5400 SHIVER RD,KELLER,76244,227904103,01-01-08,486,84,132,190,4,76,,,,155,77,17.3,27.2,39.1,0.8,15.6,,,,31.9,15.8
PFLUGERVILLE ISD,NORTHWEST EL,TRAVIS,-95.899867,30.947669,926 RANEY LN,MADISONVILLE,77864,227904104,01-01-08,497,89,236,114,1,57,,,,300,138,17.9,47.5,22.9,0.2,11.5,,,,60.4,27.8
PFLUGERVILLE ISD,DESSAU EL,TRAVIS,-97.093496,32.599207,500 COUNTRY CLUB DR,ARLINGTON,76002,227904105,01-01-08,441,85,225,81,1,49,,,,327,149,19.3,51,18.4,0.2,11.1,,,,74.1,33.8
PFLUGERVILLE ISD,WINDERMERE EL,TRAVIS,-96.694328,32.808111,3037 GREENMEADOW DR,DALLAS,75228,227904106,01-01-08,518,147,168,154,3,46,,,,203,36,28.4,32.4,29.7,0.6,8.9,,,,39.2,6.9
PFLUGERVILLE ISD,RIVER OAKS EL,TRAVIS,-98.152464,27.232278,100 W JERSEY DR,FALFURRIAS,78355,227904107,01-01-08,486,160,137,98,0,91,,,,322,114,32.9,28.2,20.2,0,18.7,,,,66.3,23.5
PFLUGERVILLE ISD,BROOKHOLLOW EL,TRAVIS,-98.571881,29.516845000000103,8750 FOURWINDS DR,WINDCREST,78239,227904108,01-01-08,663,157,173,278,1,54,,,,235,75,23.7,26.1,41.9,0.2,8.1,,,,35.4,11.3
PFLUGERVILLE ISD,SPRINGHILL EL,TRAVIS,-94.983177999999896,29.811718,4711 SEABIRD ST,BAYTOWN,77521,227904109,01-01-08,608,133,210,221,3,41,,,,249,67,21.9,34.5,36.3,0.5,6.7,,,,41,11
PFLUGERVILLE ISD,WINDERMERE PRI,TRAVIS,-96.576695999999856,33.28613,3233 W FANNIN,MELISSA,75454,227904110,01-01-08,559,144,198,182,2,33,,,,267,97,25.8,35.4,32.6,0.4,5.9,,,,47.8,17.4
PFLUGERVILLE ISD,COPPERFIELD EL,TRAVIS,-97.226075,33.636332,625 KNIGHT DR,LINDSAY,76250,227904111,01-01-08,626,109,422,50,1,44,,,,471,311,17.4,67.4,8,0.2,7,,,,75.2,49.7
PFLUGERVILLE ISD,MURCHISON ELEMENTARY SCHOOL,TRAVIS,-101.467327,32.251625,610 E 6TH ST,BIG SPRING,79721,227904112,01-01-08,716,87,169,417,2,41,,,,97,41,12.2,23.6,58.2,0.3,5.7,,,,13.5,5.7
PFLUGERVILLE ISD,DELCO PRIMARY SCHOOL,TRAVIS,-97.28858,33.184755,501 SHAFFNER ST,PONDER,76259,227904113,01-01-08,570,82,348,86,0,54,,,,422,284,14.4,61.1,15.1,0,9.5,,,,74,49.8
PFLUGERVILLE ISD,CALDWELL ELEMENTARY,TRAVIS,-96.217513,28.709271,1001 5TH ST,PALACIOS,77465,227904114,01-01-08,708,106,361,172,1,68,,,,359,279,15,51,24.3,0.1,9.6,,,,50.7,39.4
PFLUGERVILLE ISD,ROWE LANE EL,TRAVIS,-98.16493,29.151426,,,,227904115,01-01-08,593,81,151,345,0,16,,,,94,20,13.7,25.5,58.2,0,2.7,,,,15.9,3.4
PFLUGERVILLE ISD,HIGHLAND PARK EL,TRAVIS,-95.690956,29.597978,621 CUNNINGHAM CREEK BLVD,SUGAR LAND,77479,227904116,01-01-08,802,200,321,216,2,63,,,,397,196,24.9,40,26.9,0.2,7.9,,,,49.5,24.4
PFLUGERVILLE ISD,WIELAND EL,TRAVIS,-101.880184,33.523889,3006 78TH ST,LUBBOCK,79423,227904117,01-01-08,615,269,191,80,1,74,,,,380,100,43.7,31.1,13,0.2,12,,,,61.8,16.3
MANOR ISD,MANOR H S,TRAVIS,-97.185051,31.544105000000108,2020 N 42ND ST,WACO,76710,227907001,01-01-08,1093,352,537,187,0,17,,,,652,126,32.2,49.1,17.1,0,1.6,,,,59.7,11.5
MANOR ISD,EXCEL HIGH SCHOOL,TRAVIS,-96.646766,32.910166,310 S GARLAND AVE,GARLAND,75040,227907002,01-01-08,34,7,20,7,0,0,,,,15,2,20.6,58.8,20.6,0,0,,,,44.1,5.9
MANOR ISD,TRAVIS CO J J A E P,TRAVIS,-98.194581,26.335256,3420 ROGERS RD,EDINBURG,78541,227907003,01-01-08,3,3,0,0,0,0,,,,2,0,100,0,0,0,0,,,,66.7,0
MANOR ISD,MANOR NEW TECHNOLOGY HIGH,TRAVIS,-98.49363,28.966013,1411 BENSDALE RD,PLEASANTON,78064,227907004,01-01-08,157,37,73,45,0,2,,,,85,8,23.6,46.5,28.7,0,1.3,,,,54.1,5.1
MANOR ISD,MANOR MIDDLE SCHOOL,TRAVIS,-98.504966999999894,29.387311,211 W MALONE AVE,SAN ANTONIO,78214,227907041,01-01-08,1145,338,625,163,0,19,,,,778,198,29.5,54.6,14.2,0,1.7,,,,67.9,17.3
MANOR ISD,MANOR ELEMENTARY SCHOOL,TRAVIS,-97.26238,32.946466,12120 WOODLAND SPRINGS,KELLER,76244,227907101,01-01-08,599,175,337,84,0,3,,,,383,134,29.2,56.3,14,0,0.5,,,,63.9,22.4
MANOR ISD,BLUEBONNET TRAIL ELEMENTARY SCHOO,TRAVIS,-102.731543,34.223413,,,,227907102,01-01-08,827,233,425,96,0,73,,,,508,290,28.2,51.4,11.6,0,8.8,,,,61.4,35.1
MANOR ISD,DECKER ELEMENTARY SCHOOL,TRAVIS,-95.707636,29.857234,19315 PLANTATION COVE LN,KATY,77449,227907104,01-01-08,849,154,657,35,1,2,,,,725,463,18.1,77.4,4.1,0.1,0.2,,,,85.4,54.5
MANOR ISD,BLAKE MANOR ELEMENTARY,TRAVIS,-95.506332,29.724239,3920 STONEY BROOK DR,HOUSTON,77063,227907105,01-01-08,699,118,458,119,2,2,,,,539,203,16.9,65.5,17,0.3,0.3,,,,77.1,29
MANOR ISD,PRESIDENTIAL MEADOWS EL,TRAVIS,-101.649281999999857,33.435645,615 W LUBBOCK ST,SLATON,79364,227907106,01-01-08,419,144,218,55,0,2,,,,268,88,34.4,52,13.1,0,0.5,,,,64,21
EANES ISD,WESTLAKE H S,TRAVIS,-102.066469,35.188188,1201 S FM 2381,BUSHLAND,79012,227909001,01-01-08,2448,21,156,2053,14,204,,,,53,18,0.9,6.4,83.9,0.6,8.3,,,,2.2,0.7
EANES ISD,HILL COUNTRY MIDDLE,TRAVIS,-94.651099,31.605485,411 N MOUND ST,NACOGDOCHES,75961,227909041,01-01-08,867,5,61,730,3,68,,,,24,23,0.6,7,84.2,0.3,7.8,,,,2.8,2.7
EANES ISD,WEST RIDGE MIDDLE,TRAVIS,-103.15203,31.754476000000125,200 N ROSEY DODD,WINK,79789,227909042,01-01-08,854,7,59,705,0,83,,,,19,10,0.8,6.9,82.6,0,9.7,,,,2.2,1.2
EANES ISD,EANES EL,TRAVIS,-95.266579,29.707846,7703 S LOOP E,HOUSTON,77012,227909101,01-01-08,498,7,33,403,1,54,,,,15,8,1.4,6.6,80.9,0.2,10.8,,,,3,1.6
EANES ISD,CEDAR CREEK EL,TRAVIS,-97.601028,33.218977,1201 W THOMPSON ST,DECATUR,76234,227909102,01-01-08,423,5,40,321,1,56,,,,20,25,1.2,9.5,75.9,0.2,13.2,,,,4.7,5.9
EANES ISD,VALLEY VIEW EL,TRAVIS,-106.5739,31.858284,785 SOUTHWESTERN DR,EL PASO,79912,227909103,01-01-08,439,8,50,356,0,25,,,,32,22,1.8,11.4,81.1,0,5.7,,,,7.3,5
EANES ISD,FOREST TRAIL EL,TRAVIS,-96.989888,32.798456,3100 CROSS TIMBERS,IRVING,75060,227909104,01-01-08,591,8,38,486,1,58,,,,4,22,1.4,6.4,82.2,0.2,9.8,,,,0.7,3.7
EANES ISD,BARTON CREEK EL,TRAVIS,-96.882038,32.663502,6901 S WESTMORELAND RD,DALLAS,75237,227909105,01-01-08,448,2,40,324,0,82,,,,10,3,0.4,8.9,72.3,0,18.3,,,,2.2,0.7
EANES ISD,BRIDGE POINT EL,TRAVIS,-100.480765,28.675756,841 MEMO ROBINSON RD,EAGLE PASS,78852,227909106,01-01-08,738,4,16,656,3,59,,,,6,0,0.5,2.2,88.9,0.4,8,,,,0.8,0
DEL VALLE ISD,DEL VALLE H S,TRAVIS,-99.663642,29.8318240000001,10664 N US HWY 83,LEAKEY,78873,227910001,01-01-08,2029,371,1391,245,5,17,,,,1361,138,18.3,68.6,12.1,0.2,0.8,,,,67.1,6.8
DEL VALLE ISD,DEL VALLE OPPORTUNITY CTR,TRAVIS,-99.435026,27.496553,5210 SANTA CLAUDIA LN,LAREDO,78046,227910002,01-01-08,183,31,137,14,1,0,,,,136,24,16.9,74.9,7.7,0.5,0,,,,74.3,13.1
DEL VALLE ISD,TRAVIS CO J J A E P,TRAVIS,-95.802885,29.725048000000122,26100 CINCO RANCH BLVD,KATY,77494,227910005,01-01-08,1,1,0,0,0,0,,,,0,0,100,0,0,0,0,,,,0,0
DEL VALLE ISD,DEL VALLE J H,TRAVIS,-95.61497,30.097429,11770 GREGSON RD,TOMBALL,77377,227910041,01-01-08,940,182,656,87,4,11,,,,688,108,19.4,69.8,9.3,0.4,1.2,,,,73.2,11.5
DEL VALLE ISD,JOHN P OJEDA JR HIGH,TRAVIS,-93.936709,29.879377,1023 ABE LINCOLN AVE,PORT ARTHUR,77640,227910042,01-01-08,569,67,454,44,1,3,,,,489,109,11.8,79.8,7.7,0.2,0.5,,,,85.9,19.2
DEL VALLE ISD,POPHAM EL,TRAVIS,-95.306007,29.781272,6411 LAREDO ST,HOUSTON,77020,227910101,01-01-08,890,78,725,72,2,13,,,,724,283,8.8,81.5,8.1,0.2,1.5,,,,81.3,31.8
DEL VALLE ISD,SMITH EL,TRAVIS,-98.836601,27.428435,619 AVE F,BRUNI,78344,227910106,01-01-08,697,52,597,37,1,10,,,,601,285,7.5,85.7,5.3,0.1,1.4,,,,86.2,40.9
DEL VALLE ISD,HILLCREST EL,TRAVIS,-95.633762,32.526548000000105,250 PECAN ST,VAN,75790,227910107,01-01-08,730,53,626,47,1,3,,,,670,376,7.3,85.8,6.4,0.1,0.4,,,,91.8,51.5
DEL VALLE ISD,BATY EL,TRAVIS,-96.591209,33.087847,256 COUNTRY CLUB RD,ALLEN,75002,227910108,01-01-08,831,108,688,30,1,4,,,,769,326,13,82.8,3.6,0.1,0.5,,,,92.5,39.2
DEL VALLE ISD,HORNSBY-DUNLAP EL,TRAVIS,-96.904277,32.720477,"4849 ILLINOIS AVE, STE W53A",DALLAS,75211,227910109,01-01-08,864,222,584,52,1,5,,,,683,326,25.7,67.6,6,0.1,0.6,,,,79.1,37.7
DEL VALLE ISD,DEL VALLE ELEMENTARY SCHOOL,TRAVIS,-95.96996220178886,29.804019069071959,2222 DURKIN RD,BROOKSHIRE,77423,227910110,01-01-08,701,67,523,91,4,16,,,,560,248,9.6,74.6,13,0.6,2.3,,,,79.9,35.4
DEL VALLE ISD,CREEDMOOR EL,TRAVIS,-95.782066,29.719499,7800 S FRY RD,KATY,77494,227910111,01-01-08,724,30,619,75,0,0,,,,576,295,4.1,85.5,10.4,0,0,,,,79.6,40.7
LAKE TRAVIS ISD,LAKE TRAVIS H S,TRAVIS,-101.247399,33.658827,204 S HARRISON,CROSBYTON,79322,227913001,01-01-08,1751,28,252,1408,12,51,,,,165,65,1.6,14.4,80.4,0.7,2.9,,,,9.4,3.7
LAKE TRAVIS ISD,TRAVIS CO J J A E P,TRAVIS,-95.288474,29.709825,1800 CORAL ST,HOUSTON,77012,227913002,01-01-08,1,0,0,1,0,0,,,,0,0,0,0,100,0,0,,,,0,0
LAKE TRAVIS ISD,LAKE TRAVIS MIDDLE,TRAVIS,-96.725813,32.932884000000115,550 PARK BEND,RICHARDSON,75081,227913041,01-01-08,749,12,71,628,1,37,,,,36,8,1.6,9.5,83.8,0.1,4.9,,,,4.8,1.1
LAKE TRAVIS ISD,HUDSON BEND MIDDLE,TRAVIS,-101.870042,35.157324000000109,5018 SUSAN DR,AMARILLO,79110,227913042,01-01-08,650,8,123,500,3,16,,,,110,38,1.2,18.9,76.9,0.5,2.5,,,,16.9,5.8
LAKE TRAVIS ISD,LAKE TRAVIS EL,TRAVIS,-95.48500399999989,29.636792,12825 SUMMIT RDG DR,HOUSTON,77085,227913101,01-01-08,751,13,255,466,4,13,,,,252,147,1.7,34,62.1,0.5,1.7,,,,33.6,19.6
LAKE TRAVIS ISD,LAKEWAY EL,TRAVIS,-98.600986,29.490954,3300 N LOOP 1604 W,SAN ANTONIO,78231,227913102,01-01-08,716,7,52,633,2,22,,,,16,5,1,7.3,88.4,0.3,3.1,,,,2.2,0.7
LAKE TRAVIS ISD,BEE CAVE ELEMENTARY,TRAVIS,-96.972502,32.97135,113 SAMUEL BLVD,COPPELL,75019,227913103,01-01-08,601,6,67,504,2,22,,,,60,8,1,11.1,83.9,0.3,3.7,,,,10,1.3
LAKE TRAVIS ISD,LAKE POINTE ELEMENTARY,TRAVIS,-96.750946,32.756285,2826 ELSIE FAYE HEGGINS ST,DALLAS,75215,227913104,01-01-08,635,13,63,508,4,47,,,,3,10,2,9.9,80,0.6,7.4,,,,0.5,1.6
GEORGETOWN ISD,GEORGETOWN H S,WILLIAMSON,-95.641288,29.643848,14777 VOSS RD,SUGAR LAND,77498,246904001,01-01-08,2074,87,549,1404,17,17,,,,620,79,4.2,26.5,67.7,0.8,0.8,,,,29.9,3.8
GEORGETOWN ISD,CHIP RICHARTE H S,WILLIAMSON,-98.037155,31.991096,9TH AND CHERRY ST,HICO,76457,246904002,01-01-08,70,5,17,48,0,0,,,,29,0,7.1,24.3,68.6,0,0,,,,41.4,0
GEORGETOWN ISD,GEORGETOWN ALTER PROG,WILLIAMSON,-101.640174,33.432768,740 S 7TH ST,SLATON,79364,246904003,01-01-08,12,1,5,6,0,0,,,,9,0,8.3,41.7,50,0,0,,,,75,0
GEORGETOWN ISD,GEORGETOWN 9TH GRADE,WILLIAMSON,-98.386806,26.262238,3912 E EXPY 83,MISSION,78572,246904004,01-01-08,767,36,214,502,5,10,,,,235,22,4.7,27.9,65.4,0.7,1.3,,,,30.6,2.9
GEORGETOWN ISD,DOUGLAS BENOLD MIDDLE,WILLIAMSON,-100.312249,34.011984,810 GOODWIN,PADUCAH,79248,246904040,01-01-08,713,26,160,513,7,7,,,,163,12,3.6,22.4,71.9,1,1,,,,22.9,1.7
GEORGETOWN ISD,JAMES TIPPIT MIDDLE,WILLIAMSON,-97.607697,33.189119000000119,379 BUCHANAN RD,DECATUR,76234,246904041,01-01-08,819,42,298,465,6,8,,,,345,43,5.1,36.4,56.8,0.7,1,,,,42.1,5.3
GEORGETOWN ISD,CHARLES A FORBES MIDDLE SCHOOL,WILLIAMSON,-96.716199,32.961046,450 ABRAMS RD,RICHARDSON,75081,246904042,01-01-08,653,18,174,451,2,8,,,,206,18,2.8,26.6,69.1,0.3,1.2,,,,31.5,2.8
GEORGETOWN ISD,ANNIE PURL EL,WILLIAMSON,-95.329895803999648,29.665977698000454,5874 BELFORT,HOUSTON,77033,246904101,01-01-08,745,34,428,267,7,9,,,,484,282,4.6,57.4,35.8,0.9,1.2,,,,65,37.9
GEORGETOWN ISD,CARVER EL,WILLIAMSON,-95.564215999999874,29.747795,10620 BRIAR FOREST,HOUSTON,77042,246904102,01-01-08,477,36,238,196,1,6,,,,281,129,7.5,49.9,41.1,0.2,1.3,,,,58.9,27
GEORGETOWN ISD,FROST EL,WILLIAMSON,-95.466331,29.895248,4710 W MOUNT HOUSTON,HOUSTON,77088,246904103,01-01-08,494,29,182,275,4,4,,,,231,105,5.9,36.8,55.7,0.8,0.8,,,,46.8,21.3
GEORGETOWN ISD,PAT COOPER EL,WILLIAMSON,-96.724448,32.909817,9663 FOREST LN,DALLAS,75243,246904104,01-01-08,571,31,154,376,4,6,,,,229,28,5.4,27,65.8,0.7,1.1,,,,40.1,4.9
GEORGETOWN ISD,DELL PICKETT EL,WILLIAMSON,-99.178443,30.069755,1840 GOAT CREEK PKWY,KERRVILLE,78028,246904105,01-01-08,420,29,158,227,2,4,,,,198,56,6.9,37.6,54,0.5,1,,,,47.1,13.3
GEORGETOWN ISD,RAYE MCCOY EL,WILLIAMSON,-98.913022,29.971794,605 3RD ST,COMFORT,78013,246904106,01-01-08,504,21,150,320,3,10,,,,194,70,4.2,29.8,63.5,0.6,2,,,,38.5,13.9
GEORGETOWN ISD,THE VILLAGE EL,WILLIAMSON,-97.853791,28.830493,401 F M 719,KENEDY,78119,246904107,01-01-08,429,12,80,325,5,7,,,,121,8,2.8,18.6,75.8,1.2,1.6,,,,28.2,1.9
GEORGETOWN ISD,WILLIAMS ELEMENTARY,WILLIAMSON,-106.55886,31.857429000000128,7310 BISHOP FLORES DR,EL PASO,79912,246904108,01-01-08,548,21,299,214,4,10,,,,315,137,3.8,54.6,39.1,0.7,1.8,,,,57.5,25
